State,County,Latitude,Longitude,Cluster_Groups,Cluster_Names
alabama,autauga,32.4691,-86.4732,1,Cluster 1 = Metropolis City/Business Counties
alabama,baldwin,30.5231,-87.74485,1,Cluster 1 = Metropolis City/Business Counties
alabama,barbour,31.85925,-85.45055,2,Cluster 2= SEC Surrounding Counties
alabama,bibb,32.99505,-87.12425,2,Cluster 2= SEC Surrounding Counties
alabama,blount,33.9132,-86.60495,1,Cluster 1 = Metropolis City/Business Counties
alabama,bullock,31.9833,-85.7409,2,Cluster 2= SEC Surrounding Counties
alabama,butler,31.6641,-86.7491,2,Cluster 2= SEC Surrounding Counties
alabama,calhoun,33.6584,-85.8264,2,Cluster 2= SEC Surrounding Counties
alabama,chambers,32.88585,-85.2586,2,Cluster 2= SEC Surrounding Counties
alabama,cherokee,34.1887,-85.6068,2,Cluster 2= SEC Surrounding Counties
alabama,chilton,32.8323,-86.7239,2,Cluster 2= SEC Surrounding Counties
alabama,choctaw,32.0308,-88.25995,2,Cluster 2= SEC Surrounding Counties
alabama,clarke,31.7667,-87.7614,2,Cluster 2= SEC Surrounding Counties
alabama,clay,33.2133,-85.7896,2,Cluster 2= SEC Surrounding Counties
alabama,cleburne,33.6469,-85.453,2,Cluster 2= SEC Surrounding Counties
alabama,coffee,31.3547,-85.92865,1,Cluster 1 = Metropolis City/Business Counties
alabama,colbert,34.7482,-87.6853,2,Cluster 2= SEC Surrounding Counties
alabama,conecuh,31.37205,-87.11955,2,Cluster 2= SEC Surrounding Counties
alabama,coosa,32.9453,-86.092,2,Cluster 2= SEC Surrounding Counties
alabama,covington,31.29715,-86.41005,2,Cluster 2= SEC Surrounding Counties
alabama,crenshaw,31.79925,-86.30195,2,Cluster 2= SEC Surrounding Counties
alabama,cullman,34.1643,-86.8081,2,Cluster 2= SEC Surrounding Counties
alabama,dale,31.39515,-85.6399,1,Cluster 1 = Metropolis City/Business Counties
alabama,dallas,32.4101,-87.00365,2,Cluster 2= SEC Surrounding Counties
alabama,dekalb,34.4855,-85.804,2,Cluster 2= SEC Surrounding Counties
alabama,elmore,32.57645,-86.2458,1,Cluster 1 = Metropolis City/Business Counties
alabama,escambia,31.0765,-87.4613,2,Cluster 2= SEC Surrounding Counties
alabama,etowah,34.0189,-86.0444,1,Cluster 1 = Metropolis City/Business Counties
alabama,fayette,33.7096,-87.7393,2,Cluster 2= SEC Surrounding Counties
alabama,franklin,34.4126,-87.7825,2,Cluster 2= SEC Surrounding Counties
alabama,geneva,31.0998,-85.7933,2,Cluster 2= SEC Surrounding Counties
alabama,greene,32.8752,-87.9013,2,Cluster 2= SEC Surrounding Counties
alabama,hale,32.7506,-87.611,2,Cluster 2= SEC Surrounding Counties
alabama,henry,31.5553,-85.3186,2,Cluster 2= SEC Surrounding Counties
alabama,houston,31.2125,-85.3137,1,Cluster 1 = Metropolis City/Business Counties
alabama,jackson,34.7452,-85.9925,2,Cluster 2= SEC Surrounding Counties
alabama,jefferson,33.51815,-86.80825,1,Cluster 1 = Metropolis City/Business Counties
alabama,lamar,33.7528,-88.1018,2,Cluster 2= SEC Surrounding Counties
alabama,lauderdale,34.8962,-87.666,1,Cluster 1 = Metropolis City/Business Counties
alabama,lawrence,34.5686,-87.2749,2,Cluster 2= SEC Surrounding Counties
alabama,lee,32.6127,-85.3737,1,Cluster 1 = Metropolis City/Business Counties
alabama,limestone,34.7964,-86.92125,1,Cluster 1 = Metropolis City/Business Counties
alabama,lowndes,32.1938,-86.6035,2,Cluster 2= SEC Surrounding Counties
alabama,macon,32.4048,-85.7281,2,Cluster 2= SEC Surrounding Counties
alabama,madison,34.7229,-86.6258,1,Cluster 1 = Metropolis City/Business Counties
alabama,marengo,32.2952,-87.7855,2,Cluster 2= SEC Surrounding Counties
alabama,marion,34.1134,-87.8676,2,Cluster 2= SEC Surrounding Counties
alabama,marshall,34.32225,-86.3029,2,Cluster 2= SEC Surrounding Counties
alabama,mobile,30.6913,-88.1062,1,Cluster 1 = Metropolis City/Business Counties
alabama,monroe,31.5148,-87.3702,2,Cluster 2= SEC Surrounding Counties
alabama,montgomery,32.3745,-86.256,1,Cluster 1 = Metropolis City/Business Counties
alabama,morgan,34.5379,-86.9388,1,Cluster 1 = Metropolis City/Business Counties
alabama,perry,32.55105,-87.417,2,Cluster 2= SEC Surrounding Counties
alabama,pickens,33.3516,-88.1459,2,Cluster 2= SEC Surrounding Counties
alabama,pike,31.78515,-85.94785,2,Cluster 2= SEC Surrounding Counties
alabama,randolph,33.3403,-85.3921,2,Cluster 2= SEC Surrounding Counties
alabama,russell,32.2865,-85.06865,2,Cluster 2= SEC Surrounding Counties
alabama,st. clair,33.6722,-86.308,1,Cluster 1 = Metropolis City/Business Counties
alabama,shelby,33.26165,-86.67915,1,Cluster 1 = Metropolis City/Business Counties
alabama,sumter,32.64185,-88.21845,2,Cluster 2= SEC Surrounding Counties
alabama,talladega,33.31775,-86.2325,2,Cluster 2= SEC Surrounding Counties
alabama,tallapoosa,32.8704,-85.8379,2,Cluster 2= SEC Surrounding Counties
alabama,tuscaloosa,33.2148,-87.54605,1,Cluster 1 = Metropolis City/Business Counties
alabama,walker,33.8141,-87.272,2,Cluster 2= SEC Surrounding Counties
alabama,washington,31.36115,-88.1069,2,Cluster 2= SEC Surrounding Counties
alabama,wilcox,31.9983,-87.3002,2,Cluster 2= SEC Surrounding Counties
alabama,winston,34.14935,-87.4767,2,Cluster 2= SEC Surrounding Counties
alaska,aleutians east borough,55.0593,-162.3114,3,Cluster 3 = Small Midwest Blue Collar White Counties
alaska,aleutians west census area,53.4563,-169.6169,3,Cluster 3 = Small Midwest Blue Collar White Counties
alaska,anchorage municipality,61.1898,-149.877,1,Cluster 1 = Metropolis City/Business Counties
alaska,bethel census area,60.7966,-161.6528,0,Cluster 0 = Hispanic/Native American Counties
alaska,bristol bay borough,58.7489,-156.8941,3,Cluster 3 = Small Midwest Blue Collar White Counties
alaska,denali borough,64.0259,-149.1905,3,Cluster 3 = Small Midwest Blue Collar White Counties
alaska,dillingham census area,59.0615,-158.463,3,Cluster 3 = Small Midwest Blue Collar White Counties
alaska,fairbanks north star borough,64.83605,-147.7206,1,Cluster 1 = Metropolis City/Business Counties
alaska,haines borough,59.2301,-135.4431,3,Cluster 3 = Small Midwest Blue Collar White Counties
alaska,hoonah-angoon census area,58.1,-135.68385,3,Cluster 3 = Small Midwest Blue Collar White Counties
alaska,juneau city and borough,58.32445,-134.46985,1,Cluster 1 = Metropolis City/Business Counties
alaska,kenai peninsula borough,60.4879,-151.2136,1,Cluster 1 = Metropolis City/Business Counties
alaska,ketchikan gateway borough,55.57575,-131.99025,3,Cluster 3 = Small Midwest Blue Collar White Counties
alaska,kodiak island borough,57.7989,-152.4593,3,Cluster 3 = Small Midwest Blue Collar White Counties
alaska,kusilvak census area,61.9853,-163.89465,0,Cluster 0 = Hispanic/Native American Counties
alaska,lake and peninsula borough,57.85925,-157.3778,3,Cluster 3 = Small Midwest Blue Collar White Counties
alaska,matanuska-susitna borough,61.6148,-149.7403,1,Cluster 1 = Metropolis City/Business Counties
alaska,nome census area,64.6561,-163.9493,0,Cluster 0 = Hispanic/Native American Counties
alaska,north slope borough,70.1425,-156.1664,3,Cluster 3 = Small Midwest Blue Collar White Counties
alaska,northwest arctic borough,66.9053,-160.3754,3,Cluster 3 = Small Midwest Blue Collar White Counties
alaska,petersburg borough,56.89235,-133.4441,3,Cluster 3 = Small Midwest Blue Collar White Counties
alaska,prince of wales-hyder census area,55.6176,-132.81445,3,Cluster 3 = Small Midwest Blue Collar White Counties
alaska,sitka city and borough,56.6518,-134.98805,3,Cluster 3 = Small Midwest Blue Collar White Counties
alaska,skagway municipality,59.4594,-135.3078,3,Cluster 3 = Small Midwest Blue Collar White Counties
alaska,southeast fairbanks census area,63.9573,-142.2149,3,Cluster 3 = Small Midwest Blue Collar White Counties
alaska,valdez-cordova census area,61.32675,-145.90555,3,Cluster 3 = Small Midwest Blue Collar White Counties
alaska,wrangell city and borough,56.4717,-132.3872,3,Cluster 3 = Small Midwest Blue Collar White Counties
alaska,yakutat city and borough,59.5545,-139.7547,3,Cluster 3 = Small Midwest Blue Collar White Counties
alaska,yukon-koyukuk census area,65.2268,-152.5838,0,Cluster 0 = Hispanic/Native American Counties
arizona,apache,35.47245,-109.34905,0,Cluster 0 = Hispanic/Native American Counties
arizona,cochise,31.5558,-109.9481,1,Cluster 1 = Metropolis City/Business Counties
arizona,coconino,35.29895,-111.64775,1,Cluster 1 = Metropolis City/Business Counties
arizona,gila,33.6206,-110.867,2,Cluster 2= SEC Surrounding Counties
arizona,graham,32.8694,-109.7916,2,Cluster 2= SEC Surrounding Counties
arizona,greenlee,33.0303,-109.19065,3,Cluster 3 = Small Midwest Blue Collar White Counties
arizona,la paz,33.7223,-114.2171,2,Cluster 2= SEC Surrounding Counties
arizona,maricopa,33.48785,-112.05745,1,Cluster 1 = Metropolis City/Business Counties
arizona,mohave,35.1695,-114.2831,1,Cluster 1 = Metropolis City/Business Counties
arizona,navajo,34.9015,-110.1588,0,Cluster 0 = Hispanic/Native American Counties
arizona,pima,32.2234,-110.96965,1,Cluster 1 = Metropolis City/Business Counties
arizona,pinal,32.9775,-111.54705,1,Cluster 1 = Metropolis City/Business Counties
arizona,santa cruz,31.6043,-110.9377,0,Cluster 0 = Hispanic/Native American Counties
arizona,yavapai,34.5942,-112.3224,1,Cluster 1 = Metropolis City/Business Counties
arizona,yuma,32.67655,-114.584,0,Cluster 0 = Hispanic/Native American Counties
arkansas,arkansas,34.39145,-91.3213,2,Cluster 2= SEC Surrounding Counties
arkansas,ashley,33.2302,-91.5762,2,Cluster 2= SEC Surrounding Counties
arkansas,baxter,36.3339,-92.3741,2,Cluster 2= SEC Surrounding Counties
arkansas,benton,36.36475,-94.222,1,Cluster 1 = Metropolis City/Business Counties
arkansas,boone,36.3127,-93.0094,2,Cluster 2= SEC Surrounding Counties
arkansas,bradley,33.49685,-92.1943,2,Cluster 2= SEC Surrounding Counties
arkansas,calhoun,33.5508,-92.4834,2,Cluster 2= SEC Surrounding Counties
arkansas,carroll,36.39,-93.5653,2,Cluster 2= SEC Surrounding Counties
arkansas,chicot,33.3339,-91.2854,2,Cluster 2= SEC Surrounding Counties
arkansas,clark,34.0712,-93.13445,2,Cluster 2= SEC Surrounding Counties
arkansas,clay,36.3937,-90.3908,2,Cluster 2= SEC Surrounding Counties
arkansas,cleburne,35.5655,-92.0161,2,Cluster 2= SEC Surrounding Counties
arkansas,cleveland,33.8614,-92.2168,3,Cluster 3 = Small Midwest Blue Collar White Counties
arkansas,columbia,33.26355,-93.23145,2,Cluster 2= SEC Surrounding Counties
arkansas,conway,35.27545,-92.6407,2,Cluster 2= SEC Surrounding Counties
arkansas,craighead,35.8405,-90.6573,1,Cluster 1 = Metropolis City/Business Counties
arkansas,crawford,35.5556,-94.2954,2,Cluster 2= SEC Surrounding Counties
arkansas,crittenden,35.2218,-90.2721,2,Cluster 2= SEC Surrounding Counties
arkansas,cross,35.3135,-90.7735,2,Cluster 2= SEC Surrounding Counties
arkansas,dallas,33.89985,-92.49615,2,Cluster 2= SEC Surrounding Counties
arkansas,desha,33.7803,-91.3316,2,Cluster 2= SEC Surrounding Counties
arkansas,drew,33.6305,-91.792,2,Cluster 2= SEC Surrounding Counties
arkansas,faulkner,35.0894,-92.4085,1,Cluster 1 = Metropolis City/Business Counties
arkansas,franklin,35.41455,-93.8806,2,Cluster 2= SEC Surrounding Counties
arkansas,fulton,36.3913,-91.8346,2,Cluster 2= SEC Surrounding Counties
arkansas,garland,34.5117,-93.0807,2,Cluster 2= SEC Surrounding Counties
arkansas,grant,34.3075,-92.5504,3,Cluster 3 = Small Midwest Blue Collar White Counties
arkansas,greene,36.1259,-90.5231,2,Cluster 2= SEC Surrounding Counties
arkansas,hempstead,33.7681,-93.6923,2,Cluster 2= SEC Surrounding Counties
arkansas,hot spring,34.2979,-92.9943,2,Cluster 2= SEC Surrounding Counties
arkansas,howard,34.0402,-93.96405,2,Cluster 2= SEC Surrounding Counties
arkansas,independence,35.71415,-91.56625,2,Cluster 2= SEC Surrounding Counties
arkansas,izard,36.1554,-91.9122,2,Cluster 2= SEC Surrounding Counties
arkansas,jackson,35.6233,-91.21775,2,Cluster 2= SEC Surrounding Counties
arkansas,jefferson,34.2606,-92.0128,2,Cluster 2= SEC Surrounding Counties
arkansas,johnson,35.4737,-93.4548,2,Cluster 2= SEC Surrounding Counties
arkansas,lafayette,33.3487,-93.53775,2,Cluster 2= SEC Surrounding Counties
arkansas,lawrence,36.0442,-91.1284,2,Cluster 2= SEC Surrounding Counties
arkansas,lee,34.7835,-90.78895,2,Cluster 2= SEC Surrounding Counties
arkansas,lincoln,34.01865,-91.73255,2,Cluster 2= SEC Surrounding Counties
arkansas,little river,33.7403,-94.204,2,Cluster 2= SEC Surrounding Counties
arkansas,logan,35.2919,-93.711,2,Cluster 2= SEC Surrounding Counties
arkansas,lonoke,34.784,-91.917,1,Cluster 1 = Metropolis City/Business Counties
arkansas,madison,35.9555,-93.7521,2,Cluster 2= SEC Surrounding Counties
arkansas,marion,36.27565,-92.69925,2,Cluster 2= SEC Surrounding Counties
arkansas,miller,33.3593,-93.8989,2,Cluster 2= SEC Surrounding Counties
arkansas,mississippi,35.7428,-90.0428,2,Cluster 2= SEC Surrounding Counties
arkansas,monroe,34.6965,-91.1946,2,Cluster 2= SEC Surrounding Counties
arkansas,montgomery,34.61515,-93.6715,2,Cluster 2= SEC Surrounding Counties
arkansas,nevada,33.6602,-93.3078,2,Cluster 2= SEC Surrounding Counties
arkansas,newton,36.0075,-93.1894,2,Cluster 2= SEC Surrounding Counties
arkansas,ouachita,33.57765,-92.83385,2,Cluster 2= SEC Surrounding Counties
arkansas,perry,35.037,-92.8003,2,Cluster 2= SEC Surrounding Counties
arkansas,phillips,34.476,-90.837,2,Cluster 2= SEC Surrounding Counties
arkansas,pike,34.2419,-93.6879,2,Cluster 2= SEC Surrounding Counties
arkansas,poinsett,35.5696,-90.523,2,Cluster 2= SEC Surrounding Counties
arkansas,polk,34.4088,-94.3386,2,Cluster 2= SEC Surrounding Counties
arkansas,pope,35.2854,-93.1023,2,Cluster 2= SEC Surrounding Counties
arkansas,prairie,34.8529,-91.5865,2,Cluster 2= SEC Surrounding Counties
arkansas,pulaski,34.7654,-92.2777,1,Cluster 1 = Metropolis City/Business Counties
arkansas,randolph,36.3383,-90.9419,2,Cluster 2= SEC Surrounding Counties
arkansas,st. francis,35.0132,-90.783,2,Cluster 2= SEC Surrounding Counties
arkansas,saline,34.5917,-92.5764,1,Cluster 1 = Metropolis City/Business Counties
arkansas,scott,34.83375,-93.99735,2,Cluster 2= SEC Surrounding Counties
arkansas,searcy,35.9471,-92.74115,2,Cluster 2= SEC Surrounding Counties
arkansas,sebastian,35.3046,-94.3653,1,Cluster 1 = Metropolis City/Business Counties
arkansas,sevier,33.9561,-94.3257,2,Cluster 2= SEC Surrounding Counties
arkansas,sharp,36.2758,-91.5319,2,Cluster 2= SEC Surrounding Counties
arkansas,stone,35.86915,-92.2419,2,Cluster 2= SEC Surrounding Counties
arkansas,union,33.2115,-92.66005,2,Cluster 2= SEC Surrounding Counties
arkansas,van buren,35.522,-92.4063,2,Cluster 2= SEC Surrounding Counties
arkansas,washington,36.05915,-94.19075,1,Cluster 1 = Metropolis City/Business Counties
arkansas,white,35.2445,-91.743,2,Cluster 2= SEC Surrounding Counties
arkansas,woodruff,35.20555,-91.23865,2,Cluster 2= SEC Surrounding Counties
arkansas,yell,35.0259,-93.3977,2,Cluster 2= SEC Surrounding Counties
california,alameda,37.7769,-122.2115,1,Cluster 1 = Metropolis City/Business Counties
california,alpine,38.7329,-119.9432,3,Cluster 3 = Small Midwest Blue Collar White Counties
california,amador,38.4408,-120.767,1,Cluster 1 = Metropolis City/Business Counties
california,butte,39.6374,-121.6274,1,Cluster 1 = Metropolis City/Business Counties
california,calaveras,38.1928,-120.5412,1,Cluster 1 = Metropolis City/Business Counties
california,colusa,39.18035,-122.10955,1,Cluster 1 = Metropolis City/Business Counties
california,contra costa,37.9385,-122.0619,1,Cluster 1 = Metropolis City/Business Counties
california,del norte,41.81135,-124.16405,2,Cluster 2= SEC Surrounding Counties
california,el dorado,38.8139,-120.67005,1,Cluster 1 = Metropolis City/Business Counties
california,fresno,36.738,-119.7849,1,Cluster 1 = Metropolis City/Business Counties
california,glenn,39.59595,-122.1138,2,Cluster 2= SEC Surrounding Counties
california,humboldt,40.62325,-124.04415,1,Cluster 1 = Metropolis City/Business Counties
california,imperial,32.7983,-115.527,0,Cluster 0 = Hispanic/Native American Counties
california,inyo,36.47295,-117.9556,3,Cluster 3 = Small Midwest Blue Collar White Counties
california,kern,35.36775,-118.98195,1,Cluster 1 = Metropolis City/Business Counties
california,kings,36.2565,-119.7948,0,Cluster 0 = Hispanic/Native American Counties
california,lake,39.0265,-122.7671,2,Cluster 2= SEC Surrounding Counties
california,lassen,40.40665,-120.46845,3,Cluster 3 = Small Midwest Blue Collar White Counties
california,los angeles,34.0715,-118.2642,1,Cluster 1 = Metropolis City/Business Counties
california,madera,37.2222,-119.7347,1,Cluster 1 = Metropolis City/Business Counties
california,marin,37.9882,-122.5614,1,Cluster 1 = Metropolis City/Business Counties
california,mariposa,37.53155,-119.9454,3,Cluster 3 = Small Midwest Blue Collar White Counties
california,mendocino,39.26395,-123.5586,2,Cluster 2= SEC Surrounding Counties
california,merced,37.31895,-120.6186,0,Cluster 0 = Hispanic/Native American Counties
california,modoc,41.4847,-120.5437,3,Cluster 3 = Small Midwest Blue Collar White Counties
california,mono,37.956,-119.1202,3,Cluster 3 = Small Midwest Blue Collar White Counties
california,monterey,36.5959,-121.6657,1,Cluster 1 = Metropolis City/Business Counties
california,napa,38.5058,-122.437,1,Cluster 1 = Metropolis City/Business Counties
california,nevada,39.2518,-120.99395,1,Cluster 1 = Metropolis City/Business Counties
california,orange,33.7485,-117.8657,1,Cluster 1 = Metropolis City/Business Counties
california,placer,38.9938,-121.0234,1,Cluster 1 = Metropolis City/Business Counties
california,plumas,39.934,-120.9167,3,Cluster 3 = Small Midwest Blue Collar White Counties
california,riverside,33.7967,-117.1503,1,Cluster 1 = Metropolis City/Business Counties
california,sacramento,38.5766,-121.4806,1,Cluster 1 = Metropolis City/Business Counties
california,san benito,36.8433,-121.3898,1,Cluster 1 = Metropolis City/Business Counties
california,san bernardino,34.1615,-117.2778,1,Cluster 1 = Metropolis City/Business Counties
california,san diego,32.8029,-117.11,1,Cluster 1 = Metropolis City/Business Counties
california,san francisco,37.7816,-122.4106,1,Cluster 1 = Metropolis City/Business Counties
california,san joaquin,37.9647,-121.2876,1,Cluster 1 = Metropolis City/Business Counties
california,san luis obispo,35.3107,-120.6607,1,Cluster 1 = Metropolis City/Business Counties
california,san mateo,37.53575,-122.33695,1,Cluster 1 = Metropolis City/Business Counties
california,santa barbara,34.4401,-119.8461,1,Cluster 1 = Metropolis City/Business Counties
california,santa clara,37.3349,-121.91435,1,Cluster 1 = Metropolis City/Business Counties
california,santa cruz,36.99055,-122.0033,1,Cluster 1 = Metropolis City/Business Counties
california,shasta,40.6771,-122.3131,1,Cluster 1 = Metropolis City/Business Counties
california,sierra,39.5675,-120.6734,3,Cluster 3 = Small Midwest Blue Collar White Counties
california,siskiyou,41.6116,-122.6706,2,Cluster 2= SEC Surrounding Counties
california,solano,38.2432,-121.99885,1,Cluster 1 = Metropolis City/Business Counties
california,sonoma,38.4055,-122.7482,1,Cluster 1 = Metropolis City/Business Counties
california,stanislaus,37.62415,-120.9631,1,Cluster 1 = Metropolis City/Business Counties
california,sutter,39.1259,-121.6551,1,Cluster 1 = Metropolis City/Business Counties
california,tehama,40.06515,-122.14685,2,Cluster 2= SEC Surrounding Counties
california,trinity,40.7049,-123.1823,2,Cluster 2= SEC Surrounding Counties
california,tulare,36.3092,-119.2615,0,Cluster 0 = Hispanic/Native American Counties
california,tuolumne,37.98665,-120.2607,1,Cluster 1 = Metropolis City/Business Counties
california,ventura,34.2513,-119.061,1,Cluster 1 = Metropolis City/Business Counties
california,yolo,38.6748,-121.798,1,Cluster 1 = Metropolis City/Business Counties
california,yuba,39.36555,-121.29265,1,Cluster 1 = Metropolis City/Business Counties
colorado,adams,39.8438,-104.921,1,Cluster 1 = Metropolis City/Business Counties
colorado,alamosa,37.5613,-105.87785,0,Cluster 0 = Hispanic/Native American Counties
colorado,arapahoe,39.6474,-104.8656,1,Cluster 1 = Metropolis City/Business Counties
colorado,archuleta,37.1381,-107.0401,3,Cluster 3 = Small Midwest Blue Collar White Counties
colorado,baca,37.37545,-102.50245,3,Cluster 3 = Small Midwest Blue Collar White Counties
colorado,bent,38.0862,-103.0917,0,Cluster 0 = Hispanic/Native American Counties
colorado,boulder,40.0188,-105.2436,1,Cluster 1 = Metropolis City/Business Counties
colorado,broomfield,39.9236,-105.0662,1,Cluster 1 = Metropolis City/Business Counties
colorado,chaffee,38.5528,-106.1583,3,Cluster 3 = Small Midwest Blue Collar White Counties
colorado,cheyenne,38.82385,-102.5699,3,Cluster 3 = Small Midwest Blue Collar White Counties
colorado,clear creek,39.7614,-105.6855,3,Cluster 3 = Small Midwest Blue Collar White Counties
colorado,conejos,37.1742,-106.0132,0,Cluster 0 = Hispanic/Native American Counties
colorado,costilla,37.1664,-105.478,0,Cluster 0 = Hispanic/Native American Counties
colorado,crowley,38.217,-103.7761,0,Cluster 0 = Hispanic/Native American Counties
colorado,custer,38.17345,-105.25405,3,Cluster 3 = Small Midwest Blue Collar White Counties
colorado,delta,38.7936,-107.9236,2,Cluster 2= SEC Surrounding Counties
colorado,denver,39.7435,-104.9836,1,Cluster 1 = Metropolis City/Business Counties
colorado,dolores,37.6927,-108.8063,2,Cluster 2= SEC Surrounding Counties
colorado,douglas,39.4853,-104.9019,1,Cluster 1 = Metropolis City/Business Counties
colorado,eagle,39.6434,-106.674,1,Cluster 1 = Metropolis City/Business Counties
colorado,elbert,39.3564,-104.0832,1,Cluster 1 = Metropolis City/Business Counties
colorado,el paso,38.85235,-104.77615,1,Cluster 1 = Metropolis City/Business Counties
colorado,fremont,38.3783,-105.2271,2,Cluster 2= SEC Surrounding Counties
colorado,garfield,39.5353,-107.6011,1,Cluster 1 = Metropolis City/Business Counties
colorado,gilpin,39.8677,-105.4953,3,Cluster 3 = Small Midwest Blue Collar White Counties
colorado,grand,40.04855,-105.87005,3,Cluster 3 = Small Midwest Blue Collar White Counties
colorado,gunnison,38.5745,-106.9352,3,Cluster 3 = Small Midwest Blue Collar White Counties
colorado,hinsdale,38.0356,-107.3124,3,Cluster 3 = Small Midwest Blue Collar White Counties
colorado,huerfano,37.6122,-105.0896,2,Cluster 2= SEC Surrounding Counties
colorado,jackson,40.5496,-106.2521,3,Cluster 3 = Small Midwest Blue Collar White Counties
colorado,jefferson,39.7096,-105.1193,1,Cluster 1 = Metropolis City/Business Counties
colorado,kiowa,38.4667,-102.9683,3,Cluster 3 = Small Midwest Blue Collar White Counties
colorado,kit carson,39.31655,-102.66225,3,Cluster 3 = Small Midwest Blue Collar White Counties
colorado,lake,39.1664,-106.28785,3,Cluster 3 = Small Midwest Blue Collar White Counties
colorado,la plata,37.2042,-107.86,1,Cluster 1 = Metropolis City/Business Counties
colorado,larimer,40.53235,-105.0951,1,Cluster 1 = Metropolis City/Business Counties
colorado,las animas,37.2077,-104.5031,3,Cluster 3 = Small Midwest Blue Collar White Counties
colorado,lincoln,39.2403,-103.5238,3,Cluster 3 = Small Midwest Blue Collar White Counties
colorado,logan,40.7167,-103.1713,2,Cluster 2= SEC Surrounding Counties
colorado,mesa,39.103,-108.5479,1,Cluster 1 = Metropolis City/Business Counties
colorado,mineral,37.8028,-106.9636,3,Cluster 3 = Small Midwest Blue Collar White Counties
colorado,moffat,40.5151,-107.5656,3,Cluster 3 = Small Midwest Blue Collar White Counties
colorado,montezuma,37.4052,-108.6247,2,Cluster 2= SEC Surrounding Counties
colorado,montrose,38.3682,-108.4172,1,Cluster 1 = Metropolis City/Business Counties
colorado,morgan,40.3007,-103.8132,3,Cluster 3 = Small Midwest Blue Collar White Counties
colorado,otero,38.03195,-103.6749,0,Cluster 0 = Hispanic/Native American Counties
colorado,ouray,38.08825,-107.7183,3,Cluster 3 = Small Midwest Blue Collar White Counties
colorado,park,39.2548,-105.69435,3,Cluster 3 = Small Midwest Blue Collar White Counties
colorado,phillips,40.624,-102.3861,3,Cluster 3 = Small Midwest Blue Collar White Counties
colorado,pitkin,39.2417,-106.85815,3,Cluster 3 = Small Midwest Blue Collar White Counties
colorado,prowers,38.0856,-102.3774,2,Cluster 2= SEC Surrounding Counties
colorado,pueblo,38.2707,-104.6088,1,Cluster 1 = Metropolis City/Business Counties
colorado,rio blanco,40.06745,-108.32995,3,Cluster 3 = Small Midwest Blue Collar White Counties
colorado,rio grande,37.6301,-106.2521,2,Cluster 2= SEC Surrounding Counties
colorado,routt,40.4678,-106.8738,1,Cluster 1 = Metropolis City/Business Counties
colorado,saguache,38.06705,-106.1199,2,Cluster 2= SEC Surrounding Counties
colorado,san juan,37.7664,-107.6754,3,Cluster 3 = Small Midwest Blue Collar White Counties
colorado,san miguel,37.9362,-108.0513,3,Cluster 3 = Small Midwest Blue Collar White Counties
colorado,sedgwick,40.9037,-102.4051,3,Cluster 3 = Small Midwest Blue Collar White Counties
colorado,summit,39.6011,-106.0779,1,Cluster 1 = Metropolis City/Business Counties
colorado,teller,38.92145,-105.15875,1,Cluster 1 = Metropolis City/Business Counties
colorado,washington,39.80075,-103.1851,3,Cluster 3 = Small Midwest Blue Collar White Counties
colorado,weld,40.408,-104.70265,1,Cluster 1 = Metropolis City/Business Counties
colorado,yuma,39.9367,-102.4924,3,Cluster 3 = Small Midwest Blue Collar White Counties
connecticut,fairfield,41.1626,-73.407,1,Cluster 1 = Metropolis City/Business Counties
connecticut,hartford,41.77,-72.6936,1,Cluster 1 = Metropolis City/Business Counties
connecticut,litchfield,41.757,-73.22625,1,Cluster 1 = Metropolis City/Business Counties
connecticut,middlesex,41.4715,-72.5269,1,Cluster 1 = Metropolis City/Business Counties
connecticut,new haven,41.35765,-72.9284,1,Cluster 1 = Metropolis City/Business Counties
connecticut,new london,41.4561,-72.09875,1,Cluster 1 = Metropolis City/Business Counties
connecticut,tolland,41.82795,-72.3211,1,Cluster 1 = Metropolis City/Business Counties
connecticut,windham,41.8447,-71.9417,1,Cluster 1 = Metropolis City/Business Counties
delaware,kent,39.1521,-75.5676,1,Cluster 1 = Metropolis City/Business Counties
delaware,new castle,39.7415,-75.5993,1,Cluster 1 = Metropolis City/Business Counties
delaware,sussex,38.6464,-75.2355,1,Cluster 1 = Metropolis City/Business Counties
district of columbia,district of columbia,38.8983,-77.024,1,Cluster 1 = Metropolis City/Business Counties
florida,alachua,29.6511,-82.3551,1,Cluster 1 = Metropolis City/Business Counties
florida,baker,30.2861,-82.2086,2,Cluster 2= SEC Surrounding Counties
florida,bay,30.1806,-85.6461,1,Cluster 1 = Metropolis City/Business Counties
florida,bradford,29.9062,-82.163,2,Cluster 2= SEC Surrounding Counties
florida,brevard,28.2675,-80.67,1,Cluster 1 = Metropolis City/Business Counties
florida,broward,26.14545,-80.19565,1,Cluster 1 = Metropolis City/Business Counties
florida,calhoun,30.44085,-85.1949,2,Cluster 2= SEC Surrounding Counties
florida,charlotte,26.9537,-82.1154,1,Cluster 1 = Metropolis City/Business Counties
florida,citrus,28.8658,-82.4787,1,Cluster 1 = Metropolis City/Business Counties
florida,clay,30.07735,-81.8022,1,Cluster 1 = Metropolis City/Business Counties
florida,collier,26.16315,-81.72045,1,Cluster 1 = Metropolis City/Business Counties
florida,columbia,30.1215,-82.6521,2,Cluster 2= SEC Surrounding Counties
florida,desoto,27.2172,-81.861,2,Cluster 2= SEC Surrounding Counties
florida,dixie,29.57175,-83.1333,2,Cluster 2= SEC Surrounding Counties
florida,duval,30.3083,-81.63515,1,Cluster 1 = Metropolis City/Business Counties
florida,escambia,30.4338,-87.2817,1,Cluster 1 = Metropolis City/Business Counties
florida,flagler,29.4791,-81.1286,1,Cluster 1 = Metropolis City/Business Counties
florida,franklin,29.7276,-84.8762,2,Cluster 2= SEC Surrounding Counties
florida,gadsden,30.5955,-84.61415,2,Cluster 2= SEC Surrounding Counties
florida,gilchrist,29.68425,-82.84615,2,Cluster 2= SEC Surrounding Counties
florida,glades,26.90205,-81.22525,2,Cluster 2= SEC Surrounding Counties
florida,gulf,29.8271,-85.3046,2,Cluster 2= SEC Surrounding Counties
florida,hamilton,30.4875,-83.004,2,Cluster 2= SEC Surrounding Counties
florida,hardee,27.52165,-81.8319,0,Cluster 0 = Hispanic/Native American Counties
florida,hendry,26.73915,-81.43655,0,Cluster 0 = Hispanic/Native American Counties
florida,hernando,28.52305,-82.4819,1,Cluster 1 = Metropolis City/Business Counties
florida,highlands,27.4361,-81.4398,2,Cluster 2= SEC Surrounding Counties
florida,hillsborough,27.9641,-82.4423,1,Cluster 1 = Metropolis City/Business Counties
florida,holmes,30.8703,-85.8316,2,Cluster 2= SEC Surrounding Counties
florida,indian river,27.6591,-80.4348,1,Cluster 1 = Metropolis City/Business Counties
florida,jackson,30.7739,-85.1803,2,Cluster 2= SEC Surrounding Counties
florida,jefferson,30.4781,-83.9008,2,Cluster 2= SEC Surrounding Counties
florida,lafayette,30.1402,-83.26625,2,Cluster 2= SEC Surrounding Counties
florida,lake,28.799,-81.7376,1,Cluster 1 = Metropolis City/Business Counties
florida,lee,26.5977,-81.8596,1,Cluster 1 = Metropolis City/Business Counties
florida,leon,30.44065,-84.28415,1,Cluster 1 = Metropolis City/Business Counties
florida,levy,29.29235,-82.71965,2,Cluster 2= SEC Surrounding Counties
florida,liberty,30.35635,-84.8959,2,Cluster 2= SEC Surrounding Counties
florida,madison,30.4763,-83.4031,2,Cluster 2= SEC Surrounding Counties
florida,manatee,27.465,-82.5579,1,Cluster 1 = Metropolis City/Business Counties
florida,marion,29.16215,-82.1116,1,Cluster 1 = Metropolis City/Business Counties
florida,martin,27.1643,-80.23465,1,Cluster 1 = Metropolis City/Business Counties
florida,miami-dade,25.7789,-80.3011,1,Cluster 1 = Metropolis City/Business Counties
florida,monroe,24.7184,-81.06295,1,Cluster 1 = Metropolis City/Business Counties
florida,nassau,30.6302,-81.6012,1,Cluster 1 = Metropolis City/Business Counties
florida,okaloosa,30.4976,-86.5786,1,Cluster 1 = Metropolis City/Business Counties
florida,okeechobee,27.2437,-80.8296,2,Cluster 2= SEC Surrounding Counties
florida,orange,28.5457,-81.3791,1,Cluster 1 = Metropolis City/Business Counties
florida,osceola,28.2692,-81.3607,1,Cluster 1 = Metropolis City/Business Counties
florida,palm beach,26.6159,-80.1123,1,Cluster 1 = Metropolis City/Business Counties
florida,pasco,28.2526,-82.48255,1,Cluster 1 = Metropolis City/Business Counties
florida,pinellas,27.86725,-82.72985,1,Cluster 1 = Metropolis City/Business Counties
florida,polk,28.0105,-81.7295,1,Cluster 1 = Metropolis City/Business Counties
florida,putnam,29.63375,-81.6555,2,Cluster 2= SEC Surrounding Counties
florida,st. johns,29.9565,-81.3819,1,Cluster 1 = Metropolis City/Business Counties
florida,st. lucie,27.3899,-80.3528,1,Cluster 1 = Metropolis City/Business Counties
florida,santa rosa,30.6034,-87.0507,1,Cluster 1 = Metropolis City/Business Counties
florida,sarasota,27.2385,-82.4606,1,Cluster 1 = Metropolis City/Business Counties
florida,seminole,28.70145,-81.33035,1,Cluster 1 = Metropolis City/Business Counties
florida,sumter,28.80035,-82.06135,1,Cluster 1 = Metropolis City/Business Counties
florida,suwannee,30.16175,-82.9594,2,Cluster 2= SEC Surrounding Counties
florida,taylor,30.0078,-83.5862,2,Cluster 2= SEC Surrounding Counties
florida,union,30,-82.3981,2,Cluster 2= SEC Surrounding Counties
florida,volusia,29.1145,-81.0971,1,Cluster 1 = Metropolis City/Business Counties
florida,wakulla,30.1577,-84.3833,1,Cluster 1 = Metropolis City/Business Counties
florida,walton,30.7207,-86.19335,1,Cluster 1 = Metropolis City/Business Counties
florida,washington,30.6325,-85.7786,2,Cluster 2= SEC Surrounding Counties
georgia,appling,31.75135,-82.2681,2,Cluster 2= SEC Surrounding Counties
georgia,atkinson,31.32,-82.8674,2,Cluster 2= SEC Surrounding Counties
georgia,bacon,31.5506,-82.4597,2,Cluster 2= SEC Surrounding Counties
georgia,baker,31.3261,-84.387,2,Cluster 2= SEC Surrounding Counties
georgia,baldwin,33.0813,-83.2268,2,Cluster 2= SEC Surrounding Counties
georgia,banks,34.411,-83.49435,2,Cluster 2= SEC Surrounding Counties
georgia,barrow,33.97545,-83.7363,1,Cluster 1 = Metropolis City/Business Counties
georgia,bartow,34.2402,-84.8307,1,Cluster 1 = Metropolis City/Business Counties
georgia,ben hill,31.7206,-83.249,2,Cluster 2= SEC Surrounding Counties
georgia,berrien,31.2894,-83.2161,2,Cluster 2= SEC Surrounding Counties
georgia,bibb,32.8394,-83.6455,2,Cluster 2= SEC Surrounding Counties
georgia,bleckley,32.3993,-83.3285,2,Cluster 2= SEC Surrounding Counties
georgia,brantley,31.1915,-81.9043,2,Cluster 2= SEC Surrounding Counties
georgia,brooks,30.90575,-83.6183,2,Cluster 2= SEC Surrounding Counties
georgia,bryan,32.1714,-81.4874,1,Cluster 1 = Metropolis City/Business Counties
georgia,bulloch,32.43895,-81.7922,2,Cluster 2= SEC Surrounding Counties
georgia,burke,33.0918,-82.1864,2,Cluster 2= SEC Surrounding Counties
georgia,butts,33.2935,-83.9693,2,Cluster 2= SEC Surrounding Counties
georgia,calhoun,31.52395,-84.65835,2,Cluster 2= SEC Surrounding Counties
georgia,camden,30.8558,-81.6673,1,Cluster 1 = Metropolis City/Business Counties
georgia,candler,32.40415,-82.00825,2,Cluster 2= SEC Surrounding Counties
georgia,carroll,33.58455,-85.08455,1,Cluster 1 = Metropolis City/Business Counties
georgia,catoosa,34.9506,-85.1493,1,Cluster 1 = Metropolis City/Business Counties
georgia,charlton,30.6592,-82.0687,2,Cluster 2= SEC Surrounding Counties
georgia,chatham,32.04465,-81.10935,1,Cluster 1 = Metropolis City/Business Counties
georgia,chattahoochee,32.329,-84.8487,3,Cluster 3 = Small Midwest Blue Collar White Counties
georgia,chattooga,34.5252,-85.37095,2,Cluster 2= SEC Surrounding Counties
georgia,cherokee,34.2055,-84.5002,1,Cluster 1 = Metropolis City/Business Counties
georgia,clarke,33.9501,-83.3691,2,Cluster 2= SEC Surrounding Counties
georgia,clay,31.6309,-85.0166,2,Cluster 2= SEC Surrounding Counties
georgia,clayton,33.5616,-84.3542,2,Cluster 2= SEC Surrounding Counties
georgia,clinch,31.0111,-82.70275,2,Cluster 2= SEC Surrounding Counties
georgia,cobb,33.9279,-84.5468,1,Cluster 1 = Metropolis City/Business Counties
georgia,coffee,31.5289,-82.8667,2,Cluster 2= SEC Surrounding Counties
georgia,colquitt,31.18365,-83.7462,2,Cluster 2= SEC Surrounding Counties
georgia,columbia,33.5139,-82.17165,1,Cluster 1 = Metropolis City/Business Counties
georgia,cook,31.1655,-83.42915,2,Cluster 2= SEC Surrounding Counties
georgia,coweta,33.3736,-84.72735,1,Cluster 1 = Metropolis City/Business Counties
georgia,crawford,32.7343,-83.9823,2,Cluster 2= SEC Surrounding Counties
georgia,crisp,31.9545,-83.7773,2,Cluster 2= SEC Surrounding Counties
georgia,dade,34.8907,-85.4849,3,Cluster 3 = Small Midwest Blue Collar White Counties
georgia,dawson,34.4056,-84.0915,1,Cluster 1 = Metropolis City/Business Counties
georgia,decatur,30.8928,-84.5765,2,Cluster 2= SEC Surrounding Counties
georgia,dekalb,33.8065,-84.272,1,Cluster 1 = Metropolis City/Business Counties
georgia,dodge,32.11655,-83.11615,2,Cluster 2= SEC Surrounding Counties
georgia,dooly,32.1958,-83.83045,2,Cluster 2= SEC Surrounding Counties
georgia,dougherty,31.5735,-84.1548,2,Cluster 2= SEC Surrounding Counties
georgia,douglas,33.7498,-84.7463,1,Cluster 1 = Metropolis City/Business Counties
georgia,early,31.3021,-84.9422,2,Cluster 2= SEC Surrounding Counties
georgia,echols,30.7032,-83.0172,2,Cluster 2= SEC Surrounding Counties
georgia,effingham,32.2888,-81.32845,1,Cluster 1 = Metropolis City/Business Counties
georgia,elbert,34.1974,-82.9427,2,Cluster 2= SEC Surrounding Counties
georgia,emanuel,32.5066,-82.3402,2,Cluster 2= SEC Surrounding Counties
georgia,evans,32.1617,-81.91165,2,Cluster 2= SEC Surrounding Counties
georgia,fannin,34.925,-84.341,2,Cluster 2= SEC Surrounding Counties
georgia,fayette,33.40025,-84.5645,1,Cluster 1 = Metropolis City/Business Counties
georgia,floyd,34.2607,-85.1892,2,Cluster 2= SEC Surrounding Counties
georgia,forsyth,34.2094,-84.1702,1,Cluster 1 = Metropolis City/Business Counties
georgia,franklin,34.32515,-83.14695,2,Cluster 2= SEC Surrounding Counties
georgia,fulton,33.7566,-84.3915,1,Cluster 1 = Metropolis City/Business Counties
georgia,gilmer,34.6856,-84.42705,2,Cluster 2= SEC Surrounding Counties
georgia,glascock,33.246,-82.65475,3,Cluster 3 = Small Midwest Blue Collar White Counties
georgia,glynn,31.1818,-81.4868,1,Cluster 1 = Metropolis City/Business Counties
georgia,gordon,34.51455,-84.92315,2,Cluster 2= SEC Surrounding Counties
georgia,grady,30.874,-84.27145,2,Cluster 2= SEC Surrounding Counties
georgia,greene,33.52435,-83.0882,2,Cluster 2= SEC Surrounding Counties
georgia,gwinnett,33.9589,-84.0886,1,Cluster 1 = Metropolis City/Business Counties
georgia,habersham,34.57285,-83.5436,2,Cluster 2= SEC Surrounding Counties
georgia,hall,34.2937,-83.826,1,Cluster 1 = Metropolis City/Business Counties
georgia,hancock,33.2444,-83.0456,2,Cluster 2= SEC Surrounding Counties
georgia,haralson,33.79825,-85.2103,2,Cluster 2= SEC Surrounding Counties
georgia,harris,32.7065,-84.8955,1,Cluster 1 = Metropolis City/Business Counties
georgia,hart,34.369,-83.0436,2,Cluster 2= SEC Surrounding Counties
georgia,heard,33.36495,-85.14455,2,Cluster 2= SEC Surrounding Counties
georgia,henry,33.4504,-84.1752,1,Cluster 1 = Metropolis City/Business Counties
georgia,houston,32.5919,-83.6416,1,Cluster 1 = Metropolis City/Business Counties
georgia,irwin,31.6215,-83.3331,2,Cluster 2= SEC Surrounding Counties
georgia,jackson,34.1849,-83.5655,1,Cluster 1 = Metropolis City/Business Counties
georgia,jasper,33.4215,-83.6685,2,Cluster 2= SEC Surrounding Counties
georgia,jeff davis,31.7258,-82.7212,2,Cluster 2= SEC Surrounding Counties
georgia,jefferson,33.1629,-82.4007,2,Cluster 2= SEC Surrounding Counties
georgia,jenkins,32.8652,-81.9341,2,Cluster 2= SEC Surrounding Counties
georgia,johnson,32.6803,-82.5929,2,Cluster 2= SEC Surrounding Counties
georgia,jones,33.02265,-83.4914,1,Cluster 1 = Metropolis City/Business Counties
georgia,lamar,33.09615,-84.1738,2,Cluster 2= SEC Surrounding Counties
georgia,lanier,31.00975,-83.02455,2,Cluster 2= SEC Surrounding Counties
georgia,laurens,32.5168,-82.9626,2,Cluster 2= SEC Surrounding Counties
georgia,lee,31.7926,-84.21035,1,Cluster 1 = Metropolis City/Business Counties
georgia,liberty,31.8285,-81.6,2,Cluster 2= SEC Surrounding Counties
georgia,lincoln,33.774,-82.4335,2,Cluster 2= SEC Surrounding Counties
georgia,long,31.773,-81.7387,2,Cluster 2= SEC Surrounding Counties
georgia,lowndes,30.8488,-83.2814,2,Cluster 2= SEC Surrounding Counties
georgia,lumpkin,34.5304,-83.9833,1,Cluster 1 = Metropolis City/Business Counties
georgia,mcduffie,33.433,-82.4379,2,Cluster 2= SEC Surrounding Counties
georgia,mcintosh,31.4528,-81.377,2,Cluster 2= SEC Surrounding Counties
georgia,macon,32.3554,-84.11835,2,Cluster 2= SEC Surrounding Counties
georgia,madison,34.07475,-83.2355,2,Cluster 2= SEC Surrounding Counties
georgia,marion,32.4011,-84.47855,2,Cluster 2= SEC Surrounding Counties
georgia,meriwether,33.047,-84.7108,2,Cluster 2= SEC Surrounding Counties
georgia,miller,31.1733,-84.6822,2,Cluster 2= SEC Surrounding Counties
georgia,mitchell,31.2139,-84.153,2,Cluster 2= SEC Surrounding Counties
georgia,monroe,32.9828,-83.879,2,Cluster 2= SEC Surrounding Counties
georgia,montgomery,32.1796,-82.5111,2,Cluster 2= SEC Surrounding Counties
georgia,morgan,33.6146,-83.5053,3,Cluster 3 = Small Midwest Blue Collar White Counties
georgia,murray,34.9229,-84.7634,2,Cluster 2= SEC Surrounding Counties
georgia,muscogee,32.511,-84.929,1,Cluster 1 = Metropolis City/Business Counties
georgia,newton,33.5769,-83.8709,1,Cluster 1 = Metropolis City/Business Counties
georgia,oconee,33.836,-83.451,1,Cluster 1 = Metropolis City/Business Counties
georgia,oglethorpe,33.884,-83.158,3,Cluster 3 = Small Midwest Blue Collar White Counties
georgia,paulding,33.8983,-84.8211,1,Cluster 1 = Metropolis City/Business Counties
georgia,peach,32.60735,-83.8223,2,Cluster 2= SEC Surrounding Counties
georgia,pickens,34.44345,-84.40375,1,Cluster 1 = Metropolis City/Business Counties
georgia,pierce,31.3939,-82.1853,2,Cluster 2= SEC Surrounding Counties
georgia,pike,33.1012,-84.3736,3,Cluster 3 = Small Midwest Blue Collar White Counties
georgia,polk,33.99065,-85.16615,2,Cluster 2= SEC Surrounding Counties
georgia,pulaski,32.2754,-83.4923,2,Cluster 2= SEC Surrounding Counties
georgia,putnam,33.33035,-83.3602,2,Cluster 2= SEC Surrounding Counties
georgia,quitman,31.83285,-85.01895,2,Cluster 2= SEC Surrounding Counties
georgia,rabun,34.8577,-83.4088,2,Cluster 2= SEC Surrounding Counties
georgia,randolph,31.7381,-84.7753,2,Cluster 2= SEC Surrounding Counties
georgia,richmond,33.4686,-82.0289,2,Cluster 2= SEC Surrounding Counties
georgia,rockdale,33.6265,-84.0134,1,Cluster 1 = Metropolis City/Business Counties
georgia,schley,32.2579,-84.3033,2,Cluster 2= SEC Surrounding Counties
georgia,screven,32.575,-81.6312,2,Cluster 2= SEC Surrounding Counties
georgia,seminole,30.98995,-84.844,2,Cluster 2= SEC Surrounding Counties
georgia,spalding,33.27165,-84.27955,2,Cluster 2= SEC Surrounding Counties
georgia,stephens,34.5377,-83.2893,2,Cluster 2= SEC Surrounding Counties
georgia,stewart,32.1411,-84.822,0,Cluster 0 = Hispanic/Native American Counties
georgia,sumter,31.99495,-84.15015,2,Cluster 2= SEC Surrounding Counties
georgia,talbot,32.65655,-84.55245,2,Cluster 2= SEC Surrounding Counties
georgia,taliaferro,33.5643,-82.83915,2,Cluster 2= SEC Surrounding Counties
georgia,tattnall,32.06445,-82.1148,2,Cluster 2= SEC Surrounding Counties
georgia,taylor,32.5442,-84.2565,2,Cluster 2= SEC Surrounding Counties
georgia,telfair,31.98185,-82.85535,2,Cluster 2= SEC Surrounding Counties
georgia,terrell,31.8253,-84.4296,2,Cluster 2= SEC Surrounding Counties
georgia,thomas,30.8587,-83.98325,2,Cluster 2= SEC Surrounding Counties
georgia,tift,31.4576,-83.4846,2,Cluster 2= SEC Surrounding Counties
georgia,toombs,32.1918,-82.4134,2,Cluster 2= SEC Surrounding Counties
georgia,towns,34.94245,-83.8117,2,Cluster 2= SEC Surrounding Counties
georgia,treutlen,32.3581,-82.55085,2,Cluster 2= SEC Surrounding Counties
georgia,troup,33.0352,-84.985,2,Cluster 2= SEC Surrounding Counties
georgia,turner,31.704,-83.5885,2,Cluster 2= SEC Surrounding Counties
georgia,twiggs,32.6611,-83.3627,2,Cluster 2= SEC Surrounding Counties
georgia,union,34.8728,-83.9953,2,Cluster 2= SEC Surrounding Counties
georgia,upson,32.9158,-84.2455,2,Cluster 2= SEC Surrounding Counties
georgia,walker,34.88855,-85.29945,2,Cluster 2= SEC Surrounding Counties
georgia,walton,33.7743,-83.7118,1,Cluster 1 = Metropolis City/Business Counties
georgia,ware,31.219,-82.4119,2,Cluster 2= SEC Surrounding Counties
georgia,warren,33.4583,-82.6519,2,Cluster 2= SEC Surrounding Counties
georgia,washington,32.91575,-82.8143,2,Cluster 2= SEC Surrounding Counties
georgia,wayne,31.5845,-81.9026,2,Cluster 2= SEC Surrounding Counties
georgia,webster,32.01075,-84.57955,2,Cluster 2= SEC Surrounding Counties
georgia,wheeler,32.16555,-82.7425,2,Cluster 2= SEC Surrounding Counties
georgia,white,34.693,-83.7344,2,Cluster 2= SEC Surrounding Counties
georgia,whitfield,34.77795,-84.97395,1,Cluster 1 = Metropolis City/Business Counties
georgia,wilcox,31.9618,-83.5292,2,Cluster 2= SEC Surrounding Counties
georgia,wilkes,33.7789,-82.7386,2,Cluster 2= SEC Surrounding Counties
georgia,wilkinson,32.8123,-83.2226,2,Cluster 2= SEC Surrounding Counties
georgia,worth,31.5294,-83.82405,2,Cluster 2= SEC Surrounding Counties
hawaii,hawaii,19.67785,-155.3367,1,Cluster 1 = Metropolis City/Business Counties
hawaii,honolulu,21.312,-157.8612,1,Cluster 1 = Metropolis City/Business Counties
hawaii,kauai,21.9749,-159.4845,1,Cluster 1 = Metropolis City/Business Counties
hawaii,maui,20.8879,-156.472,1,Cluster 1 = Metropolis City/Business Counties
idaho,ada,43.6145,-116.2164,1,Cluster 1 = Metropolis City/Business Counties
idaho,adams,44.6822,-116.4426,3,Cluster 3 = Small Midwest Blue Collar White Counties
idaho,bannock,42.8231,-112.34245,1,Cluster 1 = Metropolis City/Business Counties
idaho,bear lake,42.2236,-111.385,3,Cluster 3 = Small Midwest Blue Collar White Counties
idaho,benewah,47.152,-116.73605,3,Cluster 3 = Small Midwest Blue Collar White Counties
idaho,bingham,43.2111,-112.42685,1,Cluster 1 = Metropolis City/Business Counties
idaho,blaine,43.5197,-114.3058,1,Cluster 1 = Metropolis City/Business Counties
idaho,boise,44.01465,-115.9616,3,Cluster 3 = Small Midwest Blue Collar White Counties
idaho,bonner,48.22945,-116.59775,2,Cluster 2= SEC Surrounding Counties
idaho,bonneville,43.4941,-111.9825,1,Cluster 1 = Metropolis City/Business Counties
idaho,boundary,48.7403,-116.3077,3,Cluster 3 = Small Midwest Blue Collar White Counties
idaho,butte,43.7711,-113.3002,3,Cluster 3 = Small Midwest Blue Collar White Counties
idaho,camas,43.3474,-114.9622,3,Cluster 3 = Small Midwest Blue Collar White Counties
idaho,canyon,43.6542,-116.6782,1,Cluster 1 = Metropolis City/Business Counties
idaho,caribou,42.6957,-111.6619,3,Cluster 3 = Small Midwest Blue Collar White Counties
idaho,cassia,42.35535,-113.6236,1,Cluster 1 = Metropolis City/Business Counties
idaho,clark,44.27055,-112.2141,3,Cluster 3 = Small Midwest Blue Collar White Counties
idaho,clearwater,46.49,-116.1796,3,Cluster 3 = Small Midwest Blue Collar White Counties
idaho,custer,44.3031,-114.2047,3,Cluster 3 = Small Midwest Blue Collar White Counties
idaho,elmore,42.9738,-115.4818,3,Cluster 3 = Small Midwest Blue Collar White Counties
idaho,franklin,42.1196,-111.9074,3,Cluster 3 = Small Midwest Blue Collar White Counties
idaho,fremont,43.98,-111.55205,3,Cluster 3 = Small Midwest Blue Collar White Counties
idaho,gem,43.9512,-116.4085,2,Cluster 2= SEC Surrounding Counties
idaho,gooding,42.85135,-114.80415,3,Cluster 3 = Small Midwest Blue Collar White Counties
idaho,idaho,45.9264,-116.253,3,Cluster 3 = Small Midwest Blue Collar White Counties
idaho,jefferson,43.71975,-112.07685,1,Cluster 1 = Metropolis City/Business Counties
idaho,jerome,42.6003,-114.2256,2,Cluster 2= SEC Surrounding Counties
idaho,kootenai,47.71735,-116.78885,1,Cluster 1 = Metropolis City/Business Counties
idaho,latah,46.7975,-116.8057,2,Cluster 2= SEC Surrounding Counties
idaho,lemhi,45.12005,-113.8909,3,Cluster 3 = Small Midwest Blue Collar White Counties
idaho,lewis,46.2413,-116.4622,3,Cluster 3 = Small Midwest Blue Collar White Counties
idaho,lincoln,42.9941,-114.2617,3,Cluster 3 = Small Midwest Blue Collar White Counties
idaho,madison,43.81935,-111.78455,2,Cluster 2= SEC Surrounding Counties
idaho,minidoka,42.64245,-113.7164,2,Cluster 2= SEC Surrounding Counties
idaho,nez perce,46.43355,-116.61265,1,Cluster 1 = Metropolis City/Business Counties
idaho,oneida,42.19725,-112.47395,3,Cluster 3 = Small Midwest Blue Collar White Counties
idaho,owyhee,43.1586,-116.5017,2,Cluster 2= SEC Surrounding Counties
idaho,payette,44.0076,-116.919,2,Cluster 2= SEC Surrounding Counties
idaho,power,42.5423,-112.8263,3,Cluster 3 = Small Midwest Blue Collar White Counties
idaho,shoshone,47.52245,-116.059,2,Cluster 2= SEC Surrounding Counties
idaho,teton,43.768,-111.12075,3,Cluster 3 = Small Midwest Blue Collar White Counties
idaho,twin falls,42.5335,-114.4728,1,Cluster 1 = Metropolis City/Business Counties
idaho,valley,44.8312,-116.0835,3,Cluster 3 = Small Midwest Blue Collar White Counties
idaho,washington,44.4685,-116.6807,2,Cluster 2= SEC Surrounding Counties
illinois,adams,40.0251,-91.2082,1,Cluster 1 = Metropolis City/Business Counties
illinois,alexander,37.15885,-89.30835,2,Cluster 2= SEC Surrounding Counties
illinois,bond,38.8797,-89.4109,3,Cluster 3 = Small Midwest Blue Collar White Counties
illinois,boone,42.3687,-88.8413,1,Cluster 1 = Metropolis City/Business Counties
illinois,brown,39.9863,-90.7633,3,Cluster 3 = Small Midwest Blue Collar White Counties
illinois,bureau,41.3898,-89.4265,1,Cluster 1 = Metropolis City/Business Counties
illinois,calhoun,39.19385,-90.6239,3,Cluster 3 = Small Midwest Blue Collar White Counties
illinois,carroll,42.1001,-89.8935,3,Cluster 3 = Small Midwest Blue Collar White Counties
illinois,cass,39.97265,-90.28165,3,Cluster 3 = Small Midwest Blue Collar White Counties
illinois,champaign,40.1116,-88.2304,1,Cluster 1 = Metropolis City/Business Counties
illinois,christian,39.5497,-89.298,1,Cluster 1 = Metropolis City/Business Counties
illinois,clark,39.3133,-87.7237,3,Cluster 3 = Small Midwest Blue Collar White Counties
illinois,clay,38.6815,-88.4916,3,Cluster 3 = Small Midwest Blue Collar White Counties
illinois,clinton,38.57835,-89.5429,1,Cluster 1 = Metropolis City/Business Counties
illinois,coles,39.508,-88.2245,2,Cluster 2= SEC Surrounding Counties
illinois,cook,41.881,-87.7372,1,Cluster 1 = Metropolis City/Business Counties
illinois,crawford,39.0009,-87.7493,3,Cluster 3 = Small Midwest Blue Collar White Counties
illinois,cumberland,39.2751,-88.3354,3,Cluster 3 = Small Midwest Blue Collar White Counties
illinois,dekalb,41.92805,-88.76115,1,Cluster 1 = Metropolis City/Business Counties
illinois,de witt,40.1698,-88.9067,3,Cluster 3 = Small Midwest Blue Collar White Counties
illinois,douglas,39.7983,-88.15825,3,Cluster 3 = Small Midwest Blue Collar White Counties
illinois,dupage,41.8656,-88.1011,1,Cluster 1 = Metropolis City/Business Counties
illinois,edgar,39.67695,-87.83335,3,Cluster 3 = Small Midwest Blue Collar White Counties
illinois,edwards,38.3794,-88.0108,3,Cluster 3 = Small Midwest Blue Collar White Counties
illinois,effingham,39.0597,-88.6237,1,Cluster 1 = Metropolis City/Business Counties
illinois,fayette,38.9794,-89.02155,2,Cluster 2= SEC Surrounding Counties
illinois,ford,40.5812,-88.2309,3,Cluster 3 = Small Midwest Blue Collar White Counties
illinois,franklin,37.9733,-88.977,2,Cluster 2= SEC Surrounding Counties
illinois,fulton,40.49505,-90.18305,2,Cluster 2= SEC Surrounding Counties
illinois,gallatin,37.76425,-88.25195,3,Cluster 3 = Small Midwest Blue Collar White Counties
illinois,greene,39.3586,-90.38505,2,Cluster 2= SEC Surrounding Counties
illinois,grundy,41.2382,-88.312,1,Cluster 1 = Metropolis City/Business Counties
illinois,hamilton,38.0436,-88.53785,3,Cluster 3 = Small Midwest Blue Collar White Counties
illinois,hancock,40.3973,-91.17925,3,Cluster 3 = Small Midwest Blue Collar White Counties
illinois,hardin,37.4711,-88.2661,2,Cluster 2= SEC Surrounding Counties
illinois,henderson,40.769,-90.928,3,Cluster 3 = Small Midwest Blue Collar White Counties
illinois,henry,41.295,-90.2325,1,Cluster 1 = Metropolis City/Business Counties
illinois,iroquois,40.7659,-87.7846,1,Cluster 1 = Metropolis City/Business Counties
illinois,jackson,37.7459,-89.3356,2,Cluster 2= SEC Surrounding Counties
illinois,jasper,39.02,-88.1578,3,Cluster 3 = Small Midwest Blue Collar White Counties
illinois,jefferson,38.2436,-88.9111,2,Cluster 2= SEC Surrounding Counties
illinois,jersey,39.0512,-90.339,1,Cluster 1 = Metropolis City/Business Counties
illinois,jo daviess,42.4564,-90.1938,1,Cluster 1 = Metropolis City/Business Counties
illinois,johnson,37.4682,-88.8868,2,Cluster 2= SEC Surrounding Counties
illinois,kane,41.9153,-88.3396,1,Cluster 1 = Metropolis City/Business Counties
illinois,kankakee,41.1179,-87.8702,1,Cluster 1 = Metropolis City/Business Counties
illinois,kendall,41.6559,-88.4851,1,Cluster 1 = Metropolis City/Business Counties
illinois,knox,40.9474,-90.277,2,Cluster 2= SEC Surrounding Counties
illinois,lake,42.3059,-87.9266,1,Cluster 1 = Metropolis City/Business Counties
illinois,lasalle,41.335,-88.96895,1,Cluster 1 = Metropolis City/Business Counties
illinois,lawrence,38.71925,-87.71625,2,Cluster 2= SEC Surrounding Counties
illinois,lee,41.7603,-89.2582,1,Cluster 1 = Metropolis City/Business Counties
illinois,livingston,40.8922,-88.5125,1,Cluster 1 = Metropolis City/Business Counties
illinois,logan,40.11965,-89.3588,1,Cluster 1 = Metropolis City/Business Counties
illinois,mcdonough,40.495,-90.6542,2,Cluster 2= SEC Surrounding Counties
illinois,mchenry,42.2694,-88.3126,1,Cluster 1 = Metropolis City/Business Counties
illinois,mclean,40.48455,-88.94115,1,Cluster 1 = Metropolis City/Business Counties
illinois,macon,39.84465,-88.95825,1,Cluster 1 = Metropolis City/Business Counties
illinois,macoupin,39.1346,-89.8825,1,Cluster 1 = Metropolis City/Business Counties
illinois,madison,38.8363,-89.99295,1,Cluster 1 = Metropolis City/Business Counties
illinois,marion,38.6231,-89.0298,2,Cluster 2= SEC Surrounding Counties
illinois,marshall,41.03785,-89.316,3,Cluster 3 = Small Midwest Blue Collar White Counties
illinois,mason,40.2987,-89.8543,2,Cluster 2= SEC Surrounding Counties
illinois,massac,37.1976,-88.78425,2,Cluster 2= SEC Surrounding Counties
illinois,menard,40.006,-89.84485,3,Cluster 3 = Small Midwest Blue Collar White Counties
illinois,mercer,41.2032,-90.5954,3,Cluster 3 = Small Midwest Blue Collar White Counties
illinois,monroe,38.3001,-90.1962,1,Cluster 1 = Metropolis City/Business Counties
illinois,montgomery,39.2066,-89.4928,2,Cluster 2= SEC Surrounding Counties
illinois,morgan,39.7345,-90.2299,1,Cluster 1 = Metropolis City/Business Counties
illinois,moultrie,39.6453,-88.6421,3,Cluster 3 = Small Midwest Blue Collar White Counties
illinois,ogle,42.05865,-89.2378,1,Cluster 1 = Metropolis City/Business Counties
illinois,peoria,40.70115,-89.6031,1,Cluster 1 = Metropolis City/Business Counties
illinois,perry,38.0393,-89.3926,2,Cluster 2= SEC Surrounding Counties
illinois,piatt,39.9192,-88.5933,3,Cluster 3 = Small Midwest Blue Collar White Counties
illinois,pike,39.6988,-90.8565,2,Cluster 2= SEC Surrounding Counties
illinois,pope,37.5051,-88.5241,2,Cluster 2= SEC Surrounding Counties
illinois,pulaski,37.2112,-89.163,2,Cluster 2= SEC Surrounding Counties
illinois,putnam,41.2457,-89.25,3,Cluster 3 = Small Midwest Blue Collar White Counties
illinois,randolph,38.0516,-89.8122,2,Cluster 2= SEC Surrounding Counties
illinois,richland,38.71405,-88.05855,3,Cluster 3 = Small Midwest Blue Collar White Counties
illinois,rock island,41.4938,-90.4967,1,Cluster 1 = Metropolis City/Business Counties
illinois,st. clair,38.54655,-90.00235,1,Cluster 1 = Metropolis City/Business Counties
illinois,saline,37.7371,-88.546,2,Cluster 2= SEC Surrounding Counties
illinois,sangamon,39.798,-89.65135,1,Cluster 1 = Metropolis City/Business Counties
illinois,schuyler,40.14805,-90.59455,3,Cluster 3 = Small Midwest Blue Collar White Counties
illinois,scott,39.5933,-90.4447,3,Cluster 3 = Small Midwest Blue Collar White Counties
illinois,shelby,39.3311,-88.82965,1,Cluster 1 = Metropolis City/Business Counties
illinois,stark,41.0987,-89.7406,3,Cluster 3 = Small Midwest Blue Collar White Counties
illinois,stephenson,42.37715,-89.63865,1,Cluster 1 = Metropolis City/Business Counties
illinois,tazewell,40.5535,-89.5336,1,Cluster 1 = Metropolis City/Business Counties
illinois,union,37.44675,-89.2683,2,Cluster 2= SEC Surrounding Counties
illinois,vermilion,40.1299,-87.723,2,Cluster 2= SEC Surrounding Counties
illinois,wabash,38.4081,-87.8334,3,Cluster 3 = Small Midwest Blue Collar White Counties
illinois,warren,40.86785,-90.6525,3,Cluster 3 = Small Midwest Blue Collar White Counties
illinois,washington,38.36085,-89.25385,3,Cluster 3 = Small Midwest Blue Collar White Counties
illinois,wayne,38.3913,-88.4256,3,Cluster 3 = Small Midwest Blue Collar White Counties
illinois,white,38.13235,-88.2055,3,Cluster 3 = Small Midwest Blue Collar White Counties
illinois,whiteside,41.74495,-89.9297,1,Cluster 1 = Metropolis City/Business Counties
illinois,will,41.515,-88.10455,1,Cluster 1 = Metropolis City/Business Counties
illinois,williamson,37.7872,-89.0276,1,Cluster 1 = Metropolis City/Business Counties
illinois,winnebago,42.30095,-89.04145,1,Cluster 1 = Metropolis City/Business Counties
illinois,woodford,40.7911,-89.2105,1,Cluster 1 = Metropolis City/Business Counties
indiana,adams,40.724,-84.9447,2,Cluster 2= SEC Surrounding Counties
indiana,allen,41.0719,-85.1367,1,Cluster 1 = Metropolis City/Business Counties
indiana,bartholomew,39.21695,-85.8704,1,Cluster 1 = Metropolis City/Business Counties
indiana,benton,40.5137,-87.3223,3,Cluster 3 = Small Midwest Blue Collar White Counties
indiana,blackford,40.50195,-85.3216,2,Cluster 2= SEC Surrounding Counties
indiana,boone,39.997,-86.5358,1,Cluster 1 = Metropolis City/Business Counties
indiana,brown,39.2897,-86.24765,3,Cluster 3 = Small Midwest Blue Collar White Counties
indiana,carroll,40.5967,-86.507,1,Cluster 1 = Metropolis City/Business Counties
indiana,cass,40.7646,-86.29835,2,Cluster 2= SEC Surrounding Counties
indiana,clark,38.3925,-85.74,1,Cluster 1 = Metropolis City/Business Counties
indiana,clay,39.44915,-87.1188,1,Cluster 1 = Metropolis City/Business Counties
indiana,clinton,40.33835,-86.5094,1,Cluster 1 = Metropolis City/Business Counties
indiana,crawford,38.3284,-86.4738,2,Cluster 2= SEC Surrounding Counties
indiana,daviess,38.73785,-87.0592,3,Cluster 3 = Small Midwest Blue Collar White Counties
indiana,dearborn,39.11985,-84.94205,1,Cluster 1 = Metropolis City/Business Counties
indiana,decatur,39.3351,-85.4706,1,Cluster 1 = Metropolis City/Business Counties
indiana,dekalb,41.4269,-85.0488,1,Cluster 1 = Metropolis City/Business Counties
indiana,delaware,40.18775,-85.3911,1,Cluster 1 = Metropolis City/Business Counties
indiana,dubois,38.36615,-86.89355,1,Cluster 1 = Metropolis City/Business Counties
indiana,elkhart,41.6118,-85.8466,1,Cluster 1 = Metropolis City/Business Counties
indiana,fayette,39.6414,-85.2427,2,Cluster 2= SEC Surrounding Counties
indiana,floyd,38.3231,-85.89635,1,Cluster 1 = Metropolis City/Business Counties
indiana,fountain,40.1259,-87.19295,3,Cluster 3 = Small Midwest Blue Collar White Counties
indiana,franklin,39.4039,-84.9984,1,Cluster 1 = Metropolis City/Business Counties
indiana,fulton,41.04775,-86.3243,2,Cluster 2= SEC Surrounding Counties
indiana,gibson,38.2763,-87.502,1,Cluster 1 = Metropolis City/Business Counties
indiana,grant,40.4928,-85.64735,2,Cluster 2= SEC Surrounding Counties
indiana,greene,39.0384,-86.985,2,Cluster 2= SEC Surrounding Counties
indiana,hamilton,40.0007,-86.0481,1,Cluster 1 = Metropolis City/Business Counties
indiana,hancock,39.82925,-85.8051,1,Cluster 1 = Metropolis City/Business Counties
indiana,harrison,38.2407,-86.0932,1,Cluster 1 = Metropolis City/Business Counties
indiana,hendricks,39.76395,-86.5151,1,Cluster 1 = Metropolis City/Business Counties
indiana,henry,39.90895,-85.43955,2,Cluster 2= SEC Surrounding Counties
indiana,howard,40.4493,-86.1365,1,Cluster 1 = Metropolis City/Business Counties
indiana,huntington,40.8849,-85.4996,1,Cluster 1 = Metropolis City/Business Counties
indiana,jackson,38.9473,-86.1042,1,Cluster 1 = Metropolis City/Business Counties
indiana,jasper,41.1249,-87.14805,1,Cluster 1 = Metropolis City/Business Counties
indiana,jay,40.402,-85.05675,2,Cluster 2= SEC Surrounding Counties
indiana,jefferson,38.7842,-85.4918,2,Cluster 2= SEC Surrounding Counties
indiana,jennings,38.9857,-85.6561,2,Cluster 2= SEC Surrounding Counties
indiana,johnson,39.53815,-86.10845,1,Cluster 1 = Metropolis City/Business Counties
indiana,knox,38.7699,-87.3168,2,Cluster 2= SEC Surrounding Counties
indiana,kosciusko,41.2371,-85.8591,1,Cluster 1 = Metropolis City/Business Counties
indiana,lagrange,41.6103,-85.36355,3,Cluster 3 = Small Midwest Blue Collar White Counties
indiana,lake,41.5442,-87.41165,1,Cluster 1 = Metropolis City/Business Counties
indiana,laporte,41.58205,-86.7532,1,Cluster 1 = Metropolis City/Business Counties
indiana,lawrence,38.8674,-86.5249,1,Cluster 1 = Metropolis City/Business Counties
indiana,madison,40.1002,-85.695,1,Cluster 1 = Metropolis City/Business Counties
indiana,marion,39.78215,-86.16005,1,Cluster 1 = Metropolis City/Business Counties
indiana,marshall,41.349,-86.3082,1,Cluster 1 = Metropolis City/Business Counties
indiana,martin,38.6762,-86.8999,3,Cluster 3 = Small Midwest Blue Collar White Counties
indiana,miami,40.7528,-86.101,2,Cluster 2= SEC Surrounding Counties
indiana,monroe,39.1681,-86.5325,1,Cluster 1 = Metropolis City/Business Counties
indiana,montgomery,40.0353,-86.9223,1,Cluster 1 = Metropolis City/Business Counties
indiana,morgan,39.55235,-86.4584,1,Cluster 1 = Metropolis City/Business Counties
indiana,newton,40.9546,-87.3621,3,Cluster 3 = Small Midwest Blue Collar White Counties
indiana,noble,41.38275,-85.44605,1,Cluster 1 = Metropolis City/Business Counties
indiana,ohio,38.9259,-84.9057,3,Cluster 3 = Small Midwest Blue Collar White Counties
indiana,orange,38.53315,-86.45955,2,Cluster 2= SEC Surrounding Counties
indiana,owen,39.33355,-86.8977,2,Cluster 2= SEC Surrounding Counties
indiana,parke,39.7636,-87.1962,2,Cluster 2= SEC Surrounding Counties
indiana,perry,38.0727,-86.59225,3,Cluster 3 = Small Midwest Blue Collar White Counties
indiana,pike,38.37205,-87.1734,3,Cluster 3 = Small Midwest Blue Collar White Counties
indiana,porter,41.4887,-87.08365,1,Cluster 1 = Metropolis City/Business Counties
indiana,posey,38.13415,-87.828,1,Cluster 1 = Metropolis City/Business Counties
indiana,pulaski,41.0585,-86.6342,3,Cluster 3 = Small Midwest Blue Collar White Counties
indiana,putnam,39.65635,-86.83475,1,Cluster 1 = Metropolis City/Business Counties
indiana,randolph,40.1826,-85.0321,2,Cluster 2= SEC Surrounding Counties
indiana,ripley,39.1317,-85.18805,1,Cluster 1 = Metropolis City/Business Counties
indiana,rush,39.6629,-85.4772,3,Cluster 3 = Small Midwest Blue Collar White Counties
indiana,st. joseph,41.67225,-86.2474,1,Cluster 1 = Metropolis City/Business Counties
indiana,scott,38.6834,-85.7994,2,Cluster 2= SEC Surrounding Counties
indiana,shelby,39.58705,-85.7729,1,Cluster 1 = Metropolis City/Business Counties
indiana,spencer,38.0669,-86.9743,1,Cluster 1 = Metropolis City/Business Counties
indiana,starke,41.2489,-86.60555,2,Cluster 2= SEC Surrounding Counties
indiana,steuben,41.6136,-85.02235,1,Cluster 1 = Metropolis City/Business Counties
indiana,sullivan,39.1073,-87.393,2,Cluster 2= SEC Surrounding Counties
indiana,switzerland,38.8517,-84.9881,2,Cluster 2= SEC Surrounding Counties
indiana,tippecanoe,40.4175,-86.8749,1,Cluster 1 = Metropolis City/Business Counties
indiana,tipton,40.29175,-86.07635,3,Cluster 3 = Small Midwest Blue Collar White Counties
indiana,union,39.65885,-84.97025,3,Cluster 3 = Small Midwest Blue Collar White Counties
indiana,vanderburgh,37.9742,-87.5683,1,Cluster 1 = Metropolis City/Business Counties
indiana,vermillion,39.7871,-87.4536,3,Cluster 3 = Small Midwest Blue Collar White Counties
indiana,vigo,39.4702,-87.3984,1,Cluster 1 = Metropolis City/Business Counties
indiana,wabash,40.9183,-85.771,1,Cluster 1 = Metropolis City/Business Counties
indiana,warren,40.2826,-87.36515,3,Cluster 3 = Small Midwest Blue Collar White Counties
indiana,warrick,38.0429,-87.376,1,Cluster 1 = Metropolis City/Business Counties
indiana,washington,38.55165,-86.14365,2,Cluster 2= SEC Surrounding Counties
indiana,wayne,39.8313,-85.02275,2,Cluster 2= SEC Surrounding Counties
indiana,wells,40.7366,-85.2226,1,Cluster 1 = Metropolis City/Business Counties
indiana,white,40.7624,-86.8649,1,Cluster 1 = Metropolis City/Business Counties
indiana,whitley,41.18885,-85.55415,1,Cluster 1 = Metropolis City/Business Counties
iowa,adair,41.2947,-94.5636,3,Cluster 3 = Small Midwest Blue Collar White Counties
iowa,adams,41.01685,-94.7843,3,Cluster 3 = Small Midwest Blue Collar White Counties
iowa,allamakee,43.2691,-91.3301,3,Cluster 3 = Small Midwest Blue Collar White Counties
iowa,appanoose,40.7744,-92.8358,3,Cluster 3 = Small Midwest Blue Collar White Counties
iowa,audubon,41.65615,-94.9144,3,Cluster 3 = Small Midwest Blue Collar White Counties
iowa,benton,41.9952,-92.0176,1,Cluster 1 = Metropolis City/Business Counties
iowa,black hawk,42.477,-92.3249,1,Cluster 1 = Metropolis City/Business Counties
iowa,boone,42.05175,-93.88245,1,Cluster 1 = Metropolis City/Business Counties
iowa,bremer,42.7683,-92.3215,1,Cluster 1 = Metropolis City/Business Counties
iowa,buchanan,42.4682,-91.8744,1,Cluster 1 = Metropolis City/Business Counties
iowa,buena vista,42.7505,-95.18065,1,Cluster 1 = Metropolis City/Business Counties
iowa,butler,42.7247,-92.84745,3,Cluster 3 = Small Midwest Blue Collar White Counties
iowa,calhoun,42.41015,-94.59395,3,Cluster 3 = Small Midwest Blue Collar White Counties
iowa,carroll,42.0544,-94.8467,1,Cluster 1 = Metropolis City/Business Counties
iowa,cass,41.3485,-94.94695,3,Cluster 3 = Small Midwest Blue Collar White Counties
iowa,cedar,41.8116,-91.0952,3,Cluster 3 = Small Midwest Blue Collar White Counties
iowa,cerro gordo,43.1281,-93.1999,1,Cluster 1 = Metropolis City/Business Counties
iowa,cherokee,42.7989,-95.6422,3,Cluster 3 = Small Midwest Blue Collar White Counties
iowa,chickasaw,43.0687,-92.3576,3,Cluster 3 = Small Midwest Blue Collar White Counties
iowa,clarke,41.0339,-93.7664,3,Cluster 3 = Small Midwest Blue Collar White Counties
iowa,clay,43.0599,-95.1483,3,Cluster 3 = Small Midwest Blue Collar White Counties
iowa,clayton,42.8305,-91.33935,3,Cluster 3 = Small Midwest Blue Collar White Counties
iowa,clinton,41.85725,-90.4346,1,Cluster 1 = Metropolis City/Business Counties
iowa,crawford,42.0672,-95.33495,3,Cluster 3 = Small Midwest Blue Collar White Counties
iowa,dallas,41.6662,-94.0132,1,Cluster 1 = Metropolis City/Business Counties
iowa,davis,40.79135,-92.35165,3,Cluster 3 = Small Midwest Blue Collar White Counties
iowa,decatur,40.77895,-93.80115,3,Cluster 3 = Small Midwest Blue Collar White Counties
iowa,delaware,42.4741,-91.3505,3,Cluster 3 = Small Midwest Blue Collar White Counties
iowa,des moines,40.8512,-91.1766,1,Cluster 1 = Metropolis City/Business Counties
iowa,dickinson,43.387,-95.1296,3,Cluster 3 = Small Midwest Blue Collar White Counties
iowa,dubuque,42.4987,-90.848,1,Cluster 1 = Metropolis City/Business Counties
iowa,emmet,43.4,-94.6143,3,Cluster 3 = Small Midwest Blue Collar White Counties
iowa,fayette,42.8439,-91.8852,3,Cluster 3 = Small Midwest Blue Collar White Counties
iowa,floyd,43.1465,-92.8704,3,Cluster 3 = Small Midwest Blue Collar White Counties
iowa,franklin,42.7451,-93.2226,3,Cluster 3 = Small Midwest Blue Collar White Counties
iowa,fremont,40.7502,-95.6445,3,Cluster 3 = Small Midwest Blue Collar White Counties
iowa,greene,42.02625,-94.3123,3,Cluster 3 = Small Midwest Blue Collar White Counties
iowa,grundy,42.3595,-92.7789,3,Cluster 3 = Small Midwest Blue Collar White Counties
iowa,guthrie,41.7003,-94.4067,3,Cluster 3 = Small Midwest Blue Collar White Counties
iowa,hamilton,42.3164,-93.6499,3,Cluster 3 = Small Midwest Blue Collar White Counties
iowa,hancock,43.0524,-93.79265,3,Cluster 3 = Small Midwest Blue Collar White Counties
iowa,hardin,42.3101,-93.1923,3,Cluster 3 = Small Midwest Blue Collar White Counties
iowa,harrison,41.71265,-95.8803,3,Cluster 3 = Small Midwest Blue Collar White Counties
iowa,henry,41.0106,-91.5637,1,Cluster 1 = Metropolis City/Business Counties
iowa,howard,43.3702,-92.2922,3,Cluster 3 = Small Midwest Blue Collar White Counties
iowa,humboldt,42.7811,-94.2498,3,Cluster 3 = Small Midwest Blue Collar White Counties
iowa,ida,42.3407,-95.471,3,Cluster 3 = Small Midwest Blue Collar White Counties
iowa,iowa,41.7347,-91.9978,3,Cluster 3 = Small Midwest Blue Collar White Counties
iowa,jackson,42.1155,-90.5425,3,Cluster 3 = Small Midwest Blue Collar White Counties
iowa,jasper,41.64545,-93.07765,1,Cluster 1 = Metropolis City/Business Counties
iowa,jefferson,41.0073,-92.01545,3,Cluster 3 = Small Midwest Blue Collar White Counties
iowa,johnson,41.67345,-91.54195,1,Cluster 1 = Metropolis City/Business Counties
iowa,jones,42.0834,-91.17185,1,Cluster 1 = Metropolis City/Business Counties
iowa,keokuk,41.3585,-92.2478,3,Cluster 3 = Small Midwest Blue Collar White Counties
iowa,kossuth,43.2078,-94.2157,3,Cluster 3 = Small Midwest Blue Collar White Counties
iowa,lee,40.714,-91.4529,2,Cluster 2= SEC Surrounding Counties
iowa,linn,42.0233,-91.6594,1,Cluster 1 = Metropolis City/Business Counties
iowa,louisa,41.2587,-91.2375,3,Cluster 3 = Small Midwest Blue Collar White Counties
iowa,lucas,41.0422,-93.2807,3,Cluster 3 = Small Midwest Blue Collar White Counties
iowa,lyon,43.3861,-96.26755,3,Cluster 3 = Small Midwest Blue Collar White Counties
iowa,madison,41.3145,-93.9301,3,Cluster 3 = Small Midwest Blue Collar White Counties
iowa,mahaska,41.2907,-92.62,1,Cluster 1 = Metropolis City/Business Counties
iowa,marion,41.2705,-93.0415,1,Cluster 1 = Metropolis City/Business Counties
iowa,marshall,42.0065,-92.9929,1,Cluster 1 = Metropolis City/Business Counties
iowa,mills,41.0289,-95.586,3,Cluster 3 = Small Midwest Blue Collar White Counties
iowa,mitchell,43.389,-92.7603,3,Cluster 3 = Small Midwest Blue Collar White Counties
iowa,monona,42.048,-95.9113,3,Cluster 3 = Small Midwest Blue Collar White Counties
iowa,monroe,41.028,-92.9125,3,Cluster 3 = Small Midwest Blue Collar White Counties
iowa,montgomery,41.0122,-95.12735,2,Cluster 2= SEC Surrounding Counties
iowa,muscatine,41.472,-91.1278,1,Cluster 1 = Metropolis City/Business Counties
iowa,o'brien,43.0948,-95.6394,3,Cluster 3 = Small Midwest Blue Collar White Counties
iowa,osceola,43.4063,-95.603,3,Cluster 3 = Small Midwest Blue Collar White Counties
iowa,page,40.6668,-95.2012,3,Cluster 3 = Small Midwest Blue Collar White Counties
iowa,palo alto,43.1082,-94.7505,3,Cluster 3 = Small Midwest Blue Collar White Counties
iowa,plymouth,42.7952,-96.2714,1,Cluster 1 = Metropolis City/Business Counties
iowa,pocahontas,42.78155,-94.69305,3,Cluster 3 = Small Midwest Blue Collar White Counties
iowa,polk,41.5979,-93.6371,1,Cluster 1 = Metropolis City/Business Counties
iowa,pottawattamie,41.31465,-95.6251,1,Cluster 1 = Metropolis City/Business Counties
iowa,poweshiek,41.6821,-92.4885,3,Cluster 3 = Small Midwest Blue Collar White Counties
iowa,ringgold,40.7166,-94.2335,3,Cluster 3 = Small Midwest Blue Collar White Counties
iowa,sac,42.36645,-95.0905,3,Cluster 3 = Small Midwest Blue Collar White Counties
iowa,scott,41.5708,-90.5867,1,Cluster 1 = Metropolis City/Business Counties
iowa,shelby,41.7177,-95.3429,3,Cluster 3 = Small Midwest Blue Collar White Counties
iowa,sioux,43.006,-96.1361,1,Cluster 1 = Metropolis City/Business Counties
iowa,story,42.0214,-93.60115,1,Cluster 1 = Metropolis City/Business Counties
iowa,tama,42.0796,-92.4738,3,Cluster 3 = Small Midwest Blue Collar White Counties
iowa,taylor,40.7628,-94.6414,3,Cluster 3 = Small Midwest Blue Collar White Counties
iowa,union,41.0253,-94.2233,3,Cluster 3 = Small Midwest Blue Collar White Counties
iowa,van buren,40.71895,-91.95575,3,Cluster 3 = Small Midwest Blue Collar White Counties
iowa,wapello,41.0196,-92.5037,2,Cluster 2= SEC Surrounding Counties
iowa,warren,41.3673,-93.5361,1,Cluster 1 = Metropolis City/Business Counties
iowa,washington,41.33255,-91.70035,3,Cluster 3 = Small Midwest Blue Collar White Counties
iowa,wayne,40.7592,-93.3744,3,Cluster 3 = Small Midwest Blue Collar White Counties
iowa,webster,42.42935,-94.16245,2,Cluster 2= SEC Surrounding Counties
iowa,winnebago,43.4124,-93.6688,3,Cluster 3 = Small Midwest Blue Collar White Counties
iowa,winneshiek,43.1928,-91.82925,1,Cluster 1 = Metropolis City/Business Counties
iowa,woodbury,42.46235,-96.21525,1,Cluster 1 = Metropolis City/Business Counties
iowa,worth,43.3292,-93.2343,3,Cluster 3 = Small Midwest Blue Collar White Counties
iowa,wright,42.7319,-93.7317,3,Cluster 3 = Small Midwest Blue Collar White Counties
kansas,allen,37.9158,-95.2999,2,Cluster 2= SEC Surrounding Counties
kansas,anderson,38.19015,-95.28095,3,Cluster 3 = Small Midwest Blue Collar White Counties
kansas,atchison,39.53625,-95.27005,3,Cluster 3 = Small Midwest Blue Collar White Counties
kansas,barber,37.26955,-98.5683,3,Cluster 3 = Small Midwest Blue Collar White Counties
kansas,barton,38.4496,-98.7818,1,Cluster 1 = Metropolis City/Business Counties
kansas,bourbon,37.84445,-94.88745,2,Cluster 2= SEC Surrounding Counties
kansas,brown,39.8293,-95.5393,3,Cluster 3 = Small Midwest Blue Collar White Counties
kansas,butler,37.792,-97.0071,1,Cluster 1 = Metropolis City/Business Counties
kansas,chase,38.3593,-96.5555,3,Cluster 3 = Small Midwest Blue Collar White Counties
kansas,chautauqua,37.0723,-96.1791,3,Cluster 3 = Small Midwest Blue Collar White Counties
kansas,cherokee,37.1597,-94.7476,2,Cluster 2= SEC Surrounding Counties
kansas,cheyenne,39.7658,-101.66575,3,Cluster 3 = Small Midwest Blue Collar White Counties
kansas,clark,37.1879,-99.9989,3,Cluster 3 = Small Midwest Blue Collar White Counties
kansas,clay,39.3724,-97.1367,3,Cluster 3 = Small Midwest Blue Collar White Counties
kansas,cloud,39.5062,-97.59525,3,Cluster 3 = Small Midwest Blue Collar White Counties
kansas,coffey,38.15,-95.6897,3,Cluster 3 = Small Midwest Blue Collar White Counties
kansas,comanche,37.2628,-99.3256,3,Cluster 3 = Small Midwest Blue Collar White Counties
kansas,cowley,37.3142,-96.7794,2,Cluster 2= SEC Surrounding Counties
kansas,crawford,37.51625,-94.7052,2,Cluster 2= SEC Surrounding Counties
kansas,decatur,39.74985,-100.3438,3,Cluster 3 = Small Midwest Blue Collar White Counties
kansas,dickinson,38.8987,-97.0927,3,Cluster 3 = Small Midwest Blue Collar White Counties
kansas,doniphan,39.7653,-95.1778,3,Cluster 3 = Small Midwest Blue Collar White Counties
kansas,douglas,38.94685,-95.2449,1,Cluster 1 = Metropolis City/Business Counties
kansas,edwards,37.92895,-99.3369,3,Cluster 3 = Small Midwest Blue Collar White Counties
kansas,elk,37.3797,-96.2644,3,Cluster 3 = Small Midwest Blue Collar White Counties
kansas,ellis,38.8647,-99.171,1,Cluster 1 = Metropolis City/Business Counties
kansas,ellsworth,38.7081,-98.3273,3,Cluster 3 = Small Midwest Blue Collar White Counties
kansas,finney,37.9783,-100.8583,1,Cluster 1 = Metropolis City/Business Counties
kansas,ford,37.7048,-99.82995,1,Cluster 1 = Metropolis City/Business Counties
kansas,franklin,38.5158,-95.2612,1,Cluster 1 = Metropolis City/Business Counties
kansas,geary,39.0852,-96.8381,2,Cluster 2= SEC Surrounding Counties
kansas,gove,39.1014,-100.467,3,Cluster 3 = Small Midwest Blue Collar White Counties
kansas,graham,39.36615,-99.86035,3,Cluster 3 = Small Midwest Blue Collar White Counties
kansas,grant,37.5848,-101.3492,3,Cluster 3 = Small Midwest Blue Collar White Counties
kansas,gray,37.6566,-100.4531,3,Cluster 3 = Small Midwest Blue Collar White Counties
kansas,greeley,38.4746,-101.7502,3,Cluster 3 = Small Midwest Blue Collar White Counties
kansas,greenwood,37.876,-96.1507,3,Cluster 3 = Small Midwest Blue Collar White Counties
kansas,hamilton,38.031,-101.7509,3,Cluster 3 = Small Midwest Blue Collar White Counties
kansas,harper,37.1802,-98.0295,3,Cluster 3 = Small Midwest Blue Collar White Counties
kansas,harvey,38.0497,-97.4305,1,Cluster 1 = Metropolis City/Business Counties
kansas,haskell,37.4971,-100.9184,3,Cluster 3 = Small Midwest Blue Collar White Counties
kansas,hodgeman,38.1059,-99.8148,3,Cluster 3 = Small Midwest Blue Collar White Counties
kansas,jackson,39.48595,-95.7248,3,Cluster 3 = Small Midwest Blue Collar White Counties
kansas,jefferson,39.2076,-95.3841,3,Cluster 3 = Small Midwest Blue Collar White Counties
kansas,jewell,39.789,-98.1521,3,Cluster 3 = Small Midwest Blue Collar White Counties
kansas,johnson,38.9578,-94.71035,1,Cluster 1 = Metropolis City/Business Counties
kansas,kearny,37.96565,-101.1954,3,Cluster 3 = Small Midwest Blue Collar White Counties
kansas,kingman,37.4629,-98.1451,3,Cluster 3 = Small Midwest Blue Collar White Counties
kansas,kiowa,37.6077,-99.2943,3,Cluster 3 = Small Midwest Blue Collar White Counties
kansas,labette,37.1836,-95.2839,2,Cluster 2= SEC Surrounding Counties
kansas,lane,38.53355,-100.5346,3,Cluster 3 = Small Midwest Blue Collar White Counties
kansas,leavenworth,39.2516,-94.9433,1,Cluster 1 = Metropolis City/Business Counties
kansas,lincoln,39.0426,-98.1426,3,Cluster 3 = Small Midwest Blue Collar White Counties
kansas,linn,38.1826,-94.8193,3,Cluster 3 = Small Midwest Blue Collar White Counties
kansas,logan,39.0957,-101.0347,3,Cluster 3 = Small Midwest Blue Collar White Counties
kansas,lyon,38.45985,-96.13475,2,Cluster 2= SEC Surrounding Counties
kansas,mcpherson,38.3799,-97.6654,1,Cluster 1 = Metropolis City/Business Counties
kansas,marion,38.3504,-97.1143,3,Cluster 3 = Small Midwest Blue Collar White Counties
kansas,marshall,39.8475,-96.5191,3,Cluster 3 = Small Midwest Blue Collar White Counties
kansas,meade,37.2783,-100.3361,3,Cluster 3 = Small Midwest Blue Collar White Counties
kansas,miami,38.5924,-94.8605,1,Cluster 1 = Metropolis City/Business Counties
kansas,mitchell,39.461,-98.3016,3,Cluster 3 = Small Midwest Blue Collar White Counties
kansas,montgomery,37.13145,-95.71425,2,Cluster 2= SEC Surrounding Counties
kansas,morris,38.6593,-96.6743,3,Cluster 3 = Small Midwest Blue Collar White Counties
kansas,morton,37.1194,-101.7385,3,Cluster 3 = Small Midwest Blue Collar White Counties
kansas,nemaha,39.8362,-95.972,3,Cluster 3 = Small Midwest Blue Collar White Counties
kansas,neosho,37.54885,-95.2998,3,Cluster 3 = Small Midwest Blue Collar White Counties
kansas,ness,38.6248,-99.9382,3,Cluster 3 = Small Midwest Blue Collar White Counties
kansas,norton,39.791,-99.9405,3,Cluster 3 = Small Midwest Blue Collar White Counties
kansas,osage,38.6504,-95.668,3,Cluster 3 = Small Midwest Blue Collar White Counties
kansas,osborne,39.4569,-98.7067,3,Cluster 3 = Small Midwest Blue Collar White Counties
kansas,ottawa,39.0819,-97.7313,3,Cluster 3 = Small Midwest Blue Collar White Counties
kansas,pawnee,38.1871,-99.3267,3,Cluster 3 = Small Midwest Blue Collar White Counties
kansas,phillips,39.766,-99.3277,3,Cluster 3 = Small Midwest Blue Collar White Counties
kansas,pottawatomie,39.3597,-96.26205,1,Cluster 1 = Metropolis City/Business Counties
kansas,pratt,37.6432,-98.7429,3,Cluster 3 = Small Midwest Blue Collar White Counties
kansas,rawlins,39.81685,-100.9948,3,Cluster 3 = Small Midwest Blue Collar White Counties
kansas,reno,37.9814,-97.9828,1,Cluster 1 = Metropolis City/Business Counties
kansas,republic,39.8022,-97.6304,3,Cluster 3 = Small Midwest Blue Collar White Counties
kansas,rice,38.3531,-98.25685,3,Cluster 3 = Small Midwest Blue Collar White Counties
kansas,riley,39.20005,-96.6773,1,Cluster 1 = Metropolis City/Business Counties
kansas,rooks,39.3212,-99.3072,3,Cluster 3 = Small Midwest Blue Collar White Counties
kansas,rush,38.53225,-99.31405,3,Cluster 3 = Small Midwest Blue Collar White Counties
kansas,russell,38.9697,-98.7462,3,Cluster 3 = Small Midwest Blue Collar White Counties
kansas,saline,38.8078,-97.6075,1,Cluster 1 = Metropolis City/Business Counties
kansas,scott,38.4849,-100.9103,3,Cluster 3 = Small Midwest Blue Collar White Counties
kansas,sedgwick,37.68385,-97.3591,1,Cluster 1 = Metropolis City/Business Counties
kansas,seward,37.0468,-100.9169,0,Cluster 0 = Hispanic/Native American Counties
kansas,shawnee,39.04305,-95.6839,1,Cluster 1 = Metropolis City/Business Counties
kansas,sheridan,39.44655,-100.5016,3,Cluster 3 = Small Midwest Blue Collar White Counties
kansas,sherman,39.3663,-101.7224,3,Cluster 3 = Small Midwest Blue Collar White Counties
kansas,smith,39.76845,-98.88265,3,Cluster 3 = Small Midwest Blue Collar White Counties
kansas,stafford,37.99325,-98.70825,3,Cluster 3 = Small Midwest Blue Collar White Counties
kansas,stanton,37.54665,-101.8627,3,Cluster 3 = Small Midwest Blue Collar White Counties
kansas,stevens,37.2495,-101.2653,3,Cluster 3 = Small Midwest Blue Collar White Counties
kansas,sumner,37.2702,-97.5506,1,Cluster 1 = Metropolis City/Business Counties
kansas,thomas,39.3913,-101.0476,3,Cluster 3 = Small Midwest Blue Collar White Counties
kansas,trego,39.0188,-99.8875,3,Cluster 3 = Small Midwest Blue Collar White Counties
kansas,wabaunsee,39.0113,-96.1657,3,Cluster 3 = Small Midwest Blue Collar White Counties
kansas,wallace,38.8808,-101.7493,3,Cluster 3 = Small Midwest Blue Collar White Counties
kansas,washington,39.8171,-97.0938,3,Cluster 3 = Small Midwest Blue Collar White Counties
kansas,wichita,38.4889,-101.2684,3,Cluster 3 = Small Midwest Blue Collar White Counties
kansas,wilson,37.5841,-95.7176,3,Cluster 3 = Small Midwest Blue Collar White Counties
kansas,woodson,37.8841,-95.7313,2,Cluster 2= SEC Surrounding Counties
kansas,wyandotte,39.1053,-94.6723,1,Cluster 1 = Metropolis City/Business Counties
kentucky,adair,37.0909,-85.30145,2,Cluster 2= SEC Surrounding Counties
kentucky,allen,36.6789,-86.1863,2,Cluster 2= SEC Surrounding Counties
kentucky,anderson,38.0191,-84.9335,1,Cluster 1 = Metropolis City/Business Counties
kentucky,ballard,37.0543,-88.972,3,Cluster 3 = Small Midwest Blue Collar White Counties
kentucky,barren,36.9757,-85.9193,2,Cluster 2= SEC Surrounding Counties
kentucky,bath,38.1026,-83.7559,2,Cluster 2= SEC Surrounding Counties
kentucky,bell,36.76195,-83.67455,2,Cluster 2= SEC Surrounding Counties
kentucky,boone,39.00525,-84.6673,1,Cluster 1 = Metropolis City/Business Counties
kentucky,bourbon,38.2088,-84.1959,2,Cluster 2= SEC Surrounding Counties
kentucky,boyd,38.4297,-82.6698,2,Cluster 2= SEC Surrounding Counties
kentucky,boyle,37.6205,-84.86085,2,Cluster 2= SEC Surrounding Counties
kentucky,bracken,38.70415,-84.1232,2,Cluster 2= SEC Surrounding Counties
kentucky,breathitt,37.5322,-83.3025,2,Cluster 2= SEC Surrounding Counties
kentucky,breckinridge,37.74425,-86.4295,2,Cluster 2= SEC Surrounding Counties
kentucky,bullitt,38.0001,-85.6844,1,Cluster 1 = Metropolis City/Business Counties
kentucky,butler,37.2246,-86.6793,2,Cluster 2= SEC Surrounding Counties
kentucky,caldwell,37.1567,-87.9582,2,Cluster 2= SEC Surrounding Counties
kentucky,calloway,36.6552,-88.29575,2,Cluster 2= SEC Surrounding Counties
kentucky,campbell,39.0344,-84.4546,1,Cluster 1 = Metropolis City/Business Counties
kentucky,carlisle,36.8386,-88.9417,2,Cluster 2= SEC Surrounding Counties
kentucky,carroll,38.6842,-85.0257,2,Cluster 2= SEC Surrounding Counties
kentucky,carter,38.27895,-83.0148,2,Cluster 2= SEC Surrounding Counties
kentucky,casey,37.2579,-84.85795,2,Cluster 2= SEC Surrounding Counties
kentucky,christian,36.8424,-87.4864,2,Cluster 2= SEC Surrounding Counties
kentucky,clark,37.9893,-84.1724,1,Cluster 1 = Metropolis City/Business Counties
kentucky,clay,37.1456,-83.75605,2,Cluster 2= SEC Surrounding Counties
kentucky,clinton,36.74475,-85.0694,2,Cluster 2= SEC Surrounding Counties
kentucky,crittenden,37.2694,-88.0934,2,Cluster 2= SEC Surrounding Counties
kentucky,cumberland,36.7855,-85.3758,2,Cluster 2= SEC Surrounding Counties
kentucky,daviess,37.7351,-87.112,1,Cluster 1 = Metropolis City/Business Counties
kentucky,edmonson,37.2553,-86.2849,2,Cluster 2= SEC Surrounding Counties
kentucky,elliott,38.08595,-83.09295,2,Cluster 2= SEC Surrounding Counties
kentucky,estill,37.7055,-83.93705,2,Cluster 2= SEC Surrounding Counties
kentucky,fayette,38.0405,-84.503,1,Cluster 1 = Metropolis City/Business Counties
kentucky,fleming,38.4012,-83.68635,2,Cluster 2= SEC Surrounding Counties
kentucky,floyd,37.521,-82.7258,2,Cluster 2= SEC Surrounding Counties
kentucky,franklin,38.1981,-84.8793,1,Cluster 1 = Metropolis City/Business Counties
kentucky,fulton,36.54255,-89.02785,2,Cluster 2= SEC Surrounding Counties
kentucky,gallatin,38.79785,-84.78025,3,Cluster 3 = Small Midwest Blue Collar White Counties
kentucky,garrard,37.6703,-84.598,2,Cluster 2= SEC Surrounding Counties
kentucky,grant,38.6537,-84.598,2,Cluster 2= SEC Surrounding Counties
kentucky,graves,36.76495,-88.64445,2,Cluster 2= SEC Surrounding Counties
kentucky,grayson,37.4664,-86.2996,2,Cluster 2= SEC Surrounding Counties
kentucky,green,37.3559,-85.6267,2,Cluster 2= SEC Surrounding Counties
kentucky,greenup,38.5471,-82.832,2,Cluster 2= SEC Surrounding Counties
kentucky,hancock,37.7971,-86.7865,3,Cluster 3 = Small Midwest Blue Collar White Counties
kentucky,hardin,37.7086,-85.9426,1,Cluster 1 = Metropolis City/Business Counties
kentucky,harlan,36.8525,-83.2435,2,Cluster 2= SEC Surrounding Counties
kentucky,harrison,38.4101,-84.4021,2,Cluster 2= SEC Surrounding Counties
kentucky,hart,37.2883,-85.8804,2,Cluster 2= SEC Surrounding Counties
kentucky,henderson,37.8341,-87.57285,2,Cluster 2= SEC Surrounding Counties
kentucky,henry,38.4549,-85.1561,3,Cluster 3 = Small Midwest Blue Collar White Counties
kentucky,hickman,36.7183,-89.0425,3,Cluster 3 = Small Midwest Blue Collar White Counties
kentucky,hopkins,37.25615,-87.504,2,Cluster 2= SEC Surrounding Counties
kentucky,jackson,37.4247,-84.0033,2,Cluster 2= SEC Surrounding Counties
kentucky,jefferson,38.21735,-85.69995,1,Cluster 1 = Metropolis City/Business Counties
kentucky,jessamine,37.8813,-84.6085,1,Cluster 1 = Metropolis City/Business Counties
kentucky,johnson,37.8273,-82.7881,2,Cluster 2= SEC Surrounding Counties
kentucky,kenton,39.04605,-84.514,1,Cluster 1 = Metropolis City/Business Counties
kentucky,knott,37.3509,-82.9073,2,Cluster 2= SEC Surrounding Counties
kentucky,knox,36.8925,-83.8284,2,Cluster 2= SEC Surrounding Counties
kentucky,larue,37.5322,-85.6961,2,Cluster 2= SEC Surrounding Counties
kentucky,laurel,37.1117,-84.0981,2,Cluster 2= SEC Surrounding Counties
kentucky,lawrence,38.0204,-82.7843,2,Cluster 2= SEC Surrounding Counties
kentucky,lee,37.58005,-83.66335,2,Cluster 2= SEC Surrounding Counties
kentucky,leslie,37.06975,-83.39805,2,Cluster 2= SEC Surrounding Counties
kentucky,letcher,37.1613,-82.7911,2,Cluster 2= SEC Surrounding Counties
kentucky,lewis,38.5538,-83.288,2,Cluster 2= SEC Surrounding Counties
kentucky,lincoln,37.44265,-84.7,2,Cluster 2= SEC Surrounding Counties
kentucky,livingston,37.1683,-88.352,3,Cluster 3 = Small Midwest Blue Collar White Counties
kentucky,logan,36.8527,-86.8844,2,Cluster 2= SEC Surrounding Counties
kentucky,lyon,37.0503,-88.1022,3,Cluster 3 = Small Midwest Blue Collar White Counties
kentucky,mccracken,37.0722,-88.6661,1,Cluster 1 = Metropolis City/Business Counties
kentucky,mccreary,36.7097,-84.4598,2,Cluster 2= SEC Surrounding Counties
kentucky,mclean,37.5096,-87.25865,3,Cluster 3 = Small Midwest Blue Collar White Counties
kentucky,madison,37.6513,-84.28795,2,Cluster 2= SEC Surrounding Counties
kentucky,magoffin,37.70735,-82.9879,2,Cluster 2= SEC Surrounding Counties
kentucky,marion,37.57825,-85.373,2,Cluster 2= SEC Surrounding Counties
kentucky,marshall,36.90585,-88.30155,1,Cluster 1 = Metropolis City/Business Counties
kentucky,martin,37.8371,-82.4459,2,Cluster 2= SEC Surrounding Counties
kentucky,mason,38.62325,-83.89285,2,Cluster 2= SEC Surrounding Counties
kentucky,meade,37.976,-86.2026,2,Cluster 2= SEC Surrounding Counties
kentucky,menifee,37.94225,-83.57775,2,Cluster 2= SEC Surrounding Counties
kentucky,mercer,37.7726,-84.8519,2,Cluster 2= SEC Surrounding Counties
kentucky,metcalfe,36.9925,-85.6804,2,Cluster 2= SEC Surrounding Counties
kentucky,monroe,36.7125,-85.8011,2,Cluster 2= SEC Surrounding Counties
kentucky,montgomery,38.0092,-83.9,2,Cluster 2= SEC Surrounding Counties
kentucky,morgan,37.8872,-83.2567,2,Cluster 2= SEC Surrounding Counties
kentucky,muhlenberg,37.2143,-87.0933,2,Cluster 2= SEC Surrounding Counties
kentucky,nelson,37.8442,-85.4602,1,Cluster 1 = Metropolis City/Business Counties
kentucky,nicholas,38.30965,-83.95785,2,Cluster 2= SEC Surrounding Counties
kentucky,ohio,37.4443,-86.7726,2,Cluster 2= SEC Surrounding Counties
kentucky,oldham,38.3879,-85.4568,1,Cluster 1 = Metropolis City/Business Counties
kentucky,owen,38.6005,-84.88,2,Cluster 2= SEC Surrounding Counties
kentucky,owsley,37.41795,-83.6216,2,Cluster 2= SEC Surrounding Counties
kentucky,pendleton,38.7801,-84.3491,3,Cluster 3 = Small Midwest Blue Collar White Counties
kentucky,perry,37.2785,-83.1954,2,Cluster 2= SEC Surrounding Counties
kentucky,pike,37.4787,-82.3368,2,Cluster 2= SEC Surrounding Counties
kentucky,powell,37.8328,-83.8177,2,Cluster 2= SEC Surrounding Counties
kentucky,pulaski,37.0862,-84.6121,2,Cluster 2= SEC Surrounding Counties
kentucky,robertson,38.523,-84.0686,2,Cluster 2= SEC Surrounding Counties
kentucky,rockcastle,37.38195,-84.315,2,Cluster 2= SEC Surrounding Counties
kentucky,rowan,38.1691,-83.4296,2,Cluster 2= SEC Surrounding Counties
kentucky,russell,37.00935,-85.0806,2,Cluster 2= SEC Surrounding Counties
kentucky,scott,38.268,-84.622,1,Cluster 1 = Metropolis City/Business Counties
kentucky,shelby,38.2128,-85.21575,1,Cluster 1 = Metropolis City/Business Counties
kentucky,simpson,36.7185,-86.5685,2,Cluster 2= SEC Surrounding Counties
kentucky,spencer,38.0668,-85.3699,3,Cluster 3 = Small Midwest Blue Collar White Counties
kentucky,taylor,37.3499,-85.27055,2,Cluster 2= SEC Surrounding Counties
kentucky,todd,36.7688,-87.15975,2,Cluster 2= SEC Surrounding Counties
kentucky,trigg,36.8385,-87.8695,2,Cluster 2= SEC Surrounding Counties
kentucky,trimble,38.6464,-85.3376,3,Cluster 3 = Small Midwest Blue Collar White Counties
kentucky,union,37.6663,-87.9202,2,Cluster 2= SEC Surrounding Counties
kentucky,warren,36.95295,-86.4293,1,Cluster 1 = Metropolis City/Business Counties
kentucky,washington,37.73345,-85.1847,2,Cluster 2= SEC Surrounding Counties
kentucky,wayne,36.8386,-84.8449,2,Cluster 2= SEC Surrounding Counties
kentucky,webster,37.5115,-87.6934,2,Cluster 2= SEC Surrounding Counties
kentucky,whitley,36.7721,-84.1015,2,Cluster 2= SEC Surrounding Counties
kentucky,wolfe,37.7291,-83.6123,2,Cluster 2= SEC Surrounding Counties
kentucky,woodford,38.0641,-84.7219,1,Cluster 1 = Metropolis City/Business Counties
louisiana,acadia,30.2342,-92.47705,2,Cluster 2= SEC Surrounding Counties
louisiana,allen,30.6626,-92.8687,2,Cluster 2= SEC Surrounding Counties
louisiana,ascension,30.2384,-90.9266,1,Cluster 1 = Metropolis City/Business Counties
louisiana,assumption,29.9755,-91.04265,2,Cluster 2= SEC Surrounding Counties
louisiana,avoyelles,31.03955,-92.05055,2,Cluster 2= SEC Surrounding Counties
louisiana,beauregard,30.6928,-93.2511,2,Cluster 2= SEC Surrounding Counties
louisiana,bienville,32.3448,-93.1179,2,Cluster 2= SEC Surrounding Counties
louisiana,bossier,32.5414,-93.6674,1,Cluster 1 = Metropolis City/Business Counties
louisiana,caddo,32.492,-93.7678,1,Cluster 1 = Metropolis City/Business Counties
louisiana,calcasieu,30.2268,-93.216,1,Cluster 1 = Metropolis City/Business Counties
louisiana,caldwell,32.03225,-92.14275,2,Cluster 2= SEC Surrounding Counties
louisiana,cameron,29.79425,-93.23575,3,Cluster 3 = Small Midwest Blue Collar White Counties
louisiana,catahoula,31.7744,-91.8444,2,Cluster 2= SEC Surrounding Counties
louisiana,claiborne,32.8449,-93.0209,2,Cluster 2= SEC Surrounding Counties
louisiana,concordia,31.5902,-91.65465,2,Cluster 2= SEC Surrounding Counties
louisiana,de soto,32.1131,-93.8074,2,Cluster 2= SEC Surrounding Counties
louisiana,east baton rouge,30.4494,-91.144,1,Cluster 1 = Metropolis City/Business Counties
louisiana,east carroll,32.6693,-91.1989,2,Cluster 2= SEC Surrounding Counties
louisiana,east feliciana,30.84335,-91.09415,2,Cluster 2= SEC Surrounding Counties
louisiana,evangeline,30.7065,-92.4131,2,Cluster 2= SEC Surrounding Counties
louisiana,franklin,32.0738,-91.70765,2,Cluster 2= SEC Surrounding Counties
louisiana,grant,31.5239,-92.5415,2,Cluster 2= SEC Surrounding Counties
louisiana,iberia,29.9909,-91.7842,1,Cluster 1 = Metropolis City/Business Counties
louisiana,iberville,30.2868,-91.2391,2,Cluster 2= SEC Surrounding Counties
louisiana,jackson,32.27695,-92.70015,2,Cluster 2= SEC Surrounding Counties
louisiana,jefferson,29.98175,-90.15635,1,Cluster 1 = Metropolis City/Business Counties
louisiana,jefferson davis,30.2384,-92.7338,2,Cluster 2= SEC Surrounding Counties
louisiana,lafayette,30.2141,-92.02485,1,Cluster 1 = Metropolis City/Business Counties
louisiana,lafourche,29.69345,-90.53035,1,Cluster 1 = Metropolis City/Business Counties
louisiana,lasalle,31.8299,-92.2258,2,Cluster 2= SEC Surrounding Counties
louisiana,lincoln,32.5305,-92.6396,2,Cluster 2= SEC Surrounding Counties
louisiana,livingston,30.4699,-90.8043,1,Cluster 1 = Metropolis City/Business Counties
louisiana,madison,32.4006,-91.1846,2,Cluster 2= SEC Surrounding Counties
louisiana,morehouse,32.7794,-91.7805,2,Cluster 2= SEC Surrounding Counties
louisiana,natchitoches,31.7551,-93.0912,2,Cluster 2= SEC Surrounding Counties
louisiana,orleans,29.9519,-90.0721,2,Cluster 2= SEC Surrounding Counties
louisiana,ouachita,32.52665,-92.0855,1,Cluster 1 = Metropolis City/Business Counties
louisiana,plaquemines,29.456,-89.67415,1,Cluster 1 = Metropolis City/Business Counties
louisiana,pointe coupee,30.6289,-91.50375,2,Cluster 2= SEC Surrounding Counties
louisiana,rapides,31.2841,-92.46465,1,Cluster 1 = Metropolis City/Business Counties
louisiana,red river,32.1037,-93.29725,2,Cluster 2= SEC Surrounding Counties
louisiana,richland,32.4273,-91.777,2,Cluster 2= SEC Surrounding Counties
louisiana,sabine,31.6055,-93.5495,2,Cluster 2= SEC Surrounding Counties
louisiana,st. bernard,29.94005,-89.9406,2,Cluster 2= SEC Surrounding Counties
louisiana,st. charles,29.95375,-90.387,1,Cluster 1 = Metropolis City/Business Counties
louisiana,st. helena,30.78065,-90.75585,2,Cluster 2= SEC Surrounding Counties
louisiana,st. james,30.0419,-90.749,1,Cluster 1 = Metropolis City/Business Counties
louisiana,st. john the baptist,30.0611,-90.56095,1,Cluster 1 = Metropolis City/Business Counties
louisiana,st. landry,30.5321,-92.0812,2,Cluster 2= SEC Surrounding Counties
louisiana,st. martin,30.2138,-91.8396,2,Cluster 2= SEC Surrounding Counties
louisiana,st. mary,29.73305,-91.38695,2,Cluster 2= SEC Surrounding Counties
louisiana,st. tammany,30.4181,-89.99155,1,Cluster 1 = Metropolis City/Business Counties
louisiana,tangipahoa,30.5607,-90.4752,1,Cluster 1 = Metropolis City/Business Counties
louisiana,tensas,31.9342,-91.3113,2,Cluster 2= SEC Surrounding Counties
louisiana,terrebonne,29.5924,-90.7244,1,Cluster 1 = Metropolis City/Business Counties
louisiana,union,32.85105,-92.472,2,Cluster 2= SEC Surrounding Counties
louisiana,vermilion,29.971,-92.13945,1,Cluster 1 = Metropolis City/Business Counties
louisiana,vernon,31.13515,-93.25305,1,Cluster 1 = Metropolis City/Business Counties
louisiana,washington,30.89545,-89.87285,2,Cluster 2= SEC Surrounding Counties
louisiana,webster,32.6323,-93.3137,2,Cluster 2= SEC Surrounding Counties
louisiana,west baton rouge,30.4339,-91.26355,1,Cluster 1 = Metropolis City/Business Counties
louisiana,west carroll,32.7932,-91.4243,2,Cluster 2= SEC Surrounding Counties
louisiana,west feliciana,30.8862,-91.4081,3,Cluster 3 = Small Midwest Blue Collar White Counties
louisiana,winn,31.95155,-92.6544,2,Cluster 2= SEC Surrounding Counties
maine,androscoggin,44.0973,-70.22945,1,Cluster 1 = Metropolis City/Business Counties
maine,aroostook,46.7633,-68.1698,2,Cluster 2= SEC Surrounding Counties
maine,cumberland,43.7632,-70.2817,1,Cluster 1 = Metropolis City/Business Counties
maine,franklin,44.6775,-70.23485,2,Cluster 2= SEC Surrounding Counties
maine,hancock,44.3944,-68.373,1,Cluster 1 = Metropolis City/Business Counties
maine,kennebec,44.34405,-69.78945,1,Cluster 1 = Metropolis City/Business Counties
maine,knox,44.07445,-69.1506,3,Cluster 3 = Small Midwest Blue Collar White Counties
maine,lincoln,43.9441,-69.55675,3,Cluster 3 = Small Midwest Blue Collar White Counties
maine,oxford,44.3231,-70.69065,2,Cluster 2= SEC Surrounding Counties
maine,penobscot,44.9627,-68.7155,1,Cluster 1 = Metropolis City/Business Counties
maine,piscataquis,45.27505,-69.35945,2,Cluster 2= SEC Surrounding Counties
maine,sagadahoc,43.9454,-69.8294,1,Cluster 1 = Metropolis City/Business Counties
maine,somerset,44.89225,-69.7176,2,Cluster 2= SEC Surrounding Counties
maine,waldo,44.492,-69.11925,3,Cluster 3 = Small Midwest Blue Collar White Counties
maine,washington,44.9,-67.5498,2,Cluster 2= SEC Surrounding Counties
maine,york,43.4726,-70.68005,1,Cluster 1 = Metropolis City/Business Counties
maryland,allegany,39.6511,-78.8499,2,Cluster 2= SEC Surrounding Counties
maryland,anne arundel,39.0276,-76.5766,1,Cluster 1 = Metropolis City/Business Counties
maryland,baltimore,39.41865,-76.6141,1,Cluster 1 = Metropolis City/Business Counties
maryland,calvert,38.5247,-76.5423,1,Cluster 1 = Metropolis City/Business Counties
maryland,caroline,38.9481,-75.8137,1,Cluster 1 = Metropolis City/Business Counties
maryland,carroll,39.5865,-76.9752,1,Cluster 1 = Metropolis City/Business Counties
maryland,cecil,39.5975,-75.9486,1,Cluster 1 = Metropolis City/Business Counties
maryland,charles,38.5116,-76.9548,1,Cluster 1 = Metropolis City/Business Counties
maryland,dorchester,38.4874,-76.0751,2,Cluster 2= SEC Surrounding Counties
maryland,frederick,39.4249,-77.40445,1,Cluster 1 = Metropolis City/Business Counties
maryland,garrett,39.5553,-79.2374,3,Cluster 3 = Small Midwest Blue Collar White Counties
maryland,harford,39.52705,-76.3077,1,Cluster 1 = Metropolis City/Business Counties
maryland,howard,39.2157,-76.8747,1,Cluster 1 = Metropolis City/Business Counties
maryland,kent,39.31195,-76.0539,3,Cluster 3 = Small Midwest Blue Collar White Counties
maryland,montgomery,39.0764,-77.0974,1,Cluster 1 = Metropolis City/Business Counties
maryland,prince george's,38.9399,-76.8912,1,Cluster 1 = Metropolis City/Business Counties
maryland,queen anne's,39.11385,-75.97895,1,Cluster 1 = Metropolis City/Business Counties
maryland,st. mary's,38.2574,-76.52825,1,Cluster 1 = Metropolis City/Business Counties
maryland,somerset,38.1036,-75.7504,2,Cluster 2= SEC Surrounding Counties
maryland,talbot,38.7762,-76.2253,1,Cluster 1 = Metropolis City/Business Counties
maryland,washington,39.643,-77.7203,1,Cluster 1 = Metropolis City/Business Counties
maryland,wicomico,38.3656,-75.6198,1,Cluster 1 = Metropolis City/Business Counties
maryland,worcester,38.3075,-75.2933,1,Cluster 1 = Metropolis City/Business Counties
maryland,baltimore city,39.2959,-76.6123,1,Cluster 1 = Metropolis City/Business Counties
massachusetts,barnstable,41.6888,-70.2723,1,Cluster 1 = Metropolis City/Business Counties
massachusetts,berkshire,42.3314,-73.2455,1,Cluster 1 = Metropolis City/Business Counties
massachusetts,bristol,41.7631,-71.0913,1,Cluster 1 = Metropolis City/Business Counties
massachusetts,dukes,41.3955,-70.6413,3,Cluster 3 = Small Midwest Blue Collar White Counties
massachusetts,essex,42.6442,-70.9542,1,Cluster 1 = Metropolis City/Business Counties
massachusetts,franklin,42.5877,-72.5563,1,Cluster 1 = Metropolis City/Business Counties
massachusetts,hampden,42.1183,-72.5698,1,Cluster 1 = Metropolis City/Business Counties
massachusetts,hampshire,42.3735,-72.6379,1,Cluster 1 = Metropolis City/Business Counties
massachusetts,middlesex,42.4245,-71.2516,1,Cluster 1 = Metropolis City/Business Counties
massachusetts,nantucket,41.277,-70.0995,3,Cluster 3 = Small Midwest Blue Collar White Counties
massachusetts,norfolk,42.209,-71.1743,1,Cluster 1 = Metropolis City/Business Counties
massachusetts,plymouth,42.0352,-70.81155,1,Cluster 1 = Metropolis City/Business Counties
massachusetts,suffolk,42.34895,-71.06065,1,Cluster 1 = Metropolis City/Business Counties
massachusetts,worcester,42.27055,-71.8043,1,Cluster 1 = Metropolis City/Business Counties
michigan,alcona,44.6851,-83.4441,2,Cluster 2= SEC Surrounding Counties
michigan,alger,46.3644,-86.9187,3,Cluster 3 = Small Midwest Blue Collar White Counties
michigan,allegan,42.63585,-85.8041,1,Cluster 1 = Metropolis City/Business Counties
michigan,alpena,45.0085,-83.5967,2,Cluster 2= SEC Surrounding Counties
michigan,antrim,44.99075,-85.26235,2,Cluster 2= SEC Surrounding Counties
michigan,arenac,44.0566,-83.8877,2,Cluster 2= SEC Surrounding Counties
michigan,baraga,46.7686,-88.4977,2,Cluster 2= SEC Surrounding Counties
