State,County,Latitude,Longitude,Cluster_Groups,Cluster_Names
alabama,autauga,32.4691,-86.4732,1,cluster_group_1
alabama,baldwin,30.5231,-87.74485,1,cluster_group_1
alabama,barbour,31.85925,-85.45055,2,cluster_group_2
alabama,bibb,32.99505,-87.12425,2,cluster_group_2
alabama,blount,33.9132,-86.60495,1,cluster_group_1
alabama,bullock,31.9833,-85.7409,2,cluster_group_2
alabama,butler,31.6641,-86.7491,2,cluster_group_2
alabama,calhoun,33.6584,-85.8264,2,cluster_group_2
alabama,chambers,32.88585,-85.2586,2,cluster_group_2
alabama,cherokee,34.1887,-85.6068,2,cluster_group_2
alabama,chilton,32.8323,-86.7239,2,cluster_group_2
alabama,choctaw,32.0308,-88.25995,2,cluster_group_2
alabama,clarke,31.7667,-87.7614,2,cluster_group_2
alabama,clay,33.2133,-85.7896,2,cluster_group_2
alabama,cleburne,33.6469,-85.453,2,cluster_group_2
alabama,coffee,31.3547,-85.92865,1,cluster_group_1
alabama,colbert,34.7482,-87.6853,2,cluster_group_2
alabama,conecuh,31.37205,-87.11955,2,cluster_group_2
alabama,coosa,32.9453,-86.092,2,cluster_group_2
alabama,covington,31.29715,-86.41005,2,cluster_group_2
alabama,crenshaw,31.79925,-86.30195,2,cluster_group_2
alabama,cullman,34.1643,-86.8081,2,cluster_group_2
alabama,dale,31.39515,-85.6399,1,cluster_group_1
alabama,dallas,32.4101,-87.00365,2,cluster_group_2
alabama,dekalb,34.4855,-85.804,2,cluster_group_2
alabama,elmore,32.57645,-86.2458,1,cluster_group_1
alabama,escambia,31.0765,-87.4613,2,cluster_group_2
alabama,etowah,34.0189,-86.0444,1,cluster_group_1
alabama,fayette,33.7096,-87.7393,2,cluster_group_2
alabama,franklin,34.4126,-87.7825,2,cluster_group_2
alabama,geneva,31.0998,-85.7933,2,cluster_group_2
alabama,greene,32.8752,-87.9013,2,cluster_group_2
alabama,hale,32.7506,-87.611,2,cluster_group_2
alabama,henry,31.5553,-85.3186,2,cluster_group_2
alabama,houston,31.2125,-85.3137,1,cluster_group_1
alabama,jackson,34.7452,-85.9925,2,cluster_group_2
alabama,jefferson,33.51815,-86.80825,1,cluster_group_1
alabama,lamar,33.7528,-88.1018,2,cluster_group_2
alabama,lauderdale,34.8962,-87.666,1,cluster_group_1
alabama,lawrence,34.5686,-87.2749,2,cluster_group_2
alabama,lee,32.6127,-85.3737,1,cluster_group_1
alabama,limestone,34.7964,-86.92125,1,cluster_group_1
alabama,lowndes,32.1938,-86.6035,2,cluster_group_2
alabama,macon,32.4048,-85.7281,2,cluster_group_2
alabama,madison,34.7229,-86.6258,1,cluster_group_1
alabama,marengo,32.2952,-87.7855,2,cluster_group_2
alabama,marion,34.1134,-87.8676,2,cluster_group_2
alabama,marshall,34.32225,-86.3029,2,cluster_group_2
alabama,mobile,30.6913,-88.1062,1,cluster_group_1
alabama,monroe,31.5148,-87.3702,2,cluster_group_2
alabama,montgomery,32.3745,-86.256,1,cluster_group_1
alabama,morgan,34.5379,-86.9388,1,cluster_group_1
alabama,perry,32.55105,-87.417,2,cluster_group_2
alabama,pickens,33.3516,-88.1459,2,cluster_group_2
alabama,pike,31.78515,-85.94785,2,cluster_group_2
alabama,randolph,33.3403,-85.3921,2,cluster_group_2
alabama,russell,32.2865,-85.06865,2,cluster_group_2
alabama,st. clair,33.6722,-86.308,1,cluster_group_1
alabama,shelby,33.26165,-86.67915,1,cluster_group_1
alabama,sumter,32.64185,-88.21845,2,cluster_group_2
alabama,talladega,33.31775,-86.2325,2,cluster_group_2
alabama,tallapoosa,32.8704,-85.8379,2,cluster_group_2
alabama,tuscaloosa,33.2148,-87.54605,1,cluster_group_1
alabama,walker,33.8141,-87.272,2,cluster_group_2
alabama,washington,31.36115,-88.1069,2,cluster_group_2
alabama,wilcox,31.9983,-87.3002,2,cluster_group_2
alabama,winston,34.14935,-87.4767,2,cluster_group_2
alaska,aleutians east borough,55.0593,-162.3114,3,cluster_group_3
alaska,aleutians west census area,53.4563,-169.6169,3,cluster_group_3
alaska,anchorage municipality,61.1898,-149.877,1,cluster_group_1
alaska,bethel census area,60.7966,-161.6528,0,cluster_group_0
alaska,bristol bay borough,58.7489,-156.8941,3,cluster_group_3
alaska,denali borough,64.0259,-149.1905,3,cluster_group_3
alaska,dillingham census area,59.0615,-158.463,3,cluster_group_3
alaska,fairbanks north star borough,64.83605,-147.7206,1,cluster_group_1
alaska,haines borough,59.2301,-135.4431,3,cluster_group_3
alaska,hoonah-angoon census area,58.1,-135.68385,3,cluster_group_3
alaska,juneau city and borough,58.32445,-134.46985,1,cluster_group_1
alaska,kenai peninsula borough,60.4879,-151.2136,1,cluster_group_1
alaska,ketchikan gateway borough,55.57575,-131.99025,3,cluster_group_3
alaska,kodiak island borough,57.7989,-152.4593,3,cluster_group_3
alaska,kusilvak census area,61.9853,-163.89465,0,cluster_group_0
alaska,lake and peninsula borough,57.85925,-157.3778,3,cluster_group_3
alaska,matanuska-susitna borough,61.6148,-149.7403,1,cluster_group_1
alaska,nome census area,64.6561,-163.9493,0,cluster_group_0
alaska,north slope borough,70.1425,-156.1664,3,cluster_group_3
alaska,northwest arctic borough,66.9053,-160.3754,3,cluster_group_3
alaska,petersburg borough,56.89235,-133.4441,3,cluster_group_3
alaska,prince of wales-hyder census area,55.6176,-132.81445,3,cluster_group_3
alaska,sitka city and borough,56.6518,-134.98805,3,cluster_group_3
alaska,skagway municipality,59.4594,-135.3078,3,cluster_group_3
alaska,southeast fairbanks census area,63.9573,-142.2149,3,cluster_group_3
alaska,valdez-cordova census area,61.32675,-145.90555,3,cluster_group_3
alaska,wrangell city and borough,56.4717,-132.3872,3,cluster_group_3
alaska,yakutat city and borough,59.5545,-139.7547,3,cluster_group_3
alaska,yukon-koyukuk census area,65.2268,-152.5838,0,cluster_group_0
arizona,apache,35.47245,-109.34905,0,cluster_group_0
arizona,cochise,31.5558,-109.9481,1,cluster_group_1
arizona,coconino,35.29895,-111.64775,1,cluster_group_1
arizona,gila,33.6206,-110.867,2,cluster_group_2
arizona,graham,32.8694,-109.7916,2,cluster_group_2
arizona,greenlee,33.0303,-109.19065,3,cluster_group_3
arizona,la paz,33.7223,-114.2171,2,cluster_group_2
arizona,maricopa,33.48785,-112.05745,1,cluster_group_1
arizona,mohave,35.1695,-114.2831,1,cluster_group_1
arizona,navajo,34.9015,-110.1588,0,cluster_group_0
arizona,pima,32.2234,-110.96965,1,cluster_group_1
arizona,pinal,32.9775,-111.54705,1,cluster_group_1
arizona,santa cruz,31.6043,-110.9377,0,cluster_group_0
arizona,yavapai,34.5942,-112.3224,1,cluster_group_1
arizona,yuma,32.67655,-114.584,0,cluster_group_0
arkansas,arkansas,34.39145,-91.3213,2,cluster_group_2
arkansas,ashley,33.2302,-91.5762,2,cluster_group_2
arkansas,baxter,36.3339,-92.3741,2,cluster_group_2
arkansas,benton,36.36475,-94.222,1,cluster_group_1
arkansas,boone,36.3127,-93.0094,2,cluster_group_2
arkansas,bradley,33.49685,-92.1943,2,cluster_group_2
arkansas,calhoun,33.5508,-92.4834,2,cluster_group_2
arkansas,carroll,36.39,-93.5653,2,cluster_group_2
arkansas,chicot,33.3339,-91.2854,2,cluster_group_2
arkansas,clark,34.0712,-93.13445,2,cluster_group_2
arkansas,clay,36.3937,-90.3908,2,cluster_group_2
arkansas,cleburne,35.5655,-92.0161,2,cluster_group_2
arkansas,cleveland,33.8614,-92.2168,3,cluster_group_3
arkansas,columbia,33.26355,-93.23145,2,cluster_group_2
arkansas,conway,35.27545,-92.6407,2,cluster_group_2
arkansas,craighead,35.8405,-90.6573,1,cluster_group_1
arkansas,crawford,35.5556,-94.2954,2,cluster_group_2
arkansas,crittenden,35.2218,-90.2721,2,cluster_group_2
arkansas,cross,35.3135,-90.7735,2,cluster_group_2
arkansas,dallas,33.89985,-92.49615,2,cluster_group_2
arkansas,desha,33.7803,-91.3316,2,cluster_group_2
arkansas,drew,33.6305,-91.792,2,cluster_group_2
arkansas,faulkner,35.0894,-92.4085,1,cluster_group_1
arkansas,franklin,35.41455,-93.8806,2,cluster_group_2
arkansas,fulton,36.3913,-91.8346,2,cluster_group_2
arkansas,garland,34.5117,-93.0807,2,cluster_group_2
arkansas,grant,34.3075,-92.5504,3,cluster_group_3
arkansas,greene,36.1259,-90.5231,2,cluster_group_2
arkansas,hempstead,33.7681,-93.6923,2,cluster_group_2
arkansas,hot spring,34.2979,-92.9943,2,cluster_group_2
arkansas,howard,34.0402,-93.96405,2,cluster_group_2
arkansas,independence,35.71415,-91.56625,2,cluster_group_2
arkansas,izard,36.1554,-91.9122,2,cluster_group_2
arkansas,jackson,35.6233,-91.21775,2,cluster_group_2
arkansas,jefferson,34.2606,-92.0128,2,cluster_group_2
arkansas,johnson,35.4737,-93.4548,2,cluster_group_2
arkansas,lafayette,33.3487,-93.53775,2,cluster_group_2
arkansas,lawrence,36.0442,-91.1284,2,cluster_group_2
arkansas,lee,34.7835,-90.78895,2,cluster_group_2
arkansas,lincoln,34.01865,-91.73255,2,cluster_group_2
arkansas,little river,33.7403,-94.204,2,cluster_group_2
arkansas,logan,35.2919,-93.711,2,cluster_group_2
arkansas,lonoke,34.784,-91.917,1,cluster_group_1
arkansas,madison,35.9555,-93.7521,2,cluster_group_2
arkansas,marion,36.27565,-92.69925,2,cluster_group_2
arkansas,miller,33.3593,-93.8989,2,cluster_group_2
arkansas,mississippi,35.7428,-90.0428,2,cluster_group_2
arkansas,monroe,34.6965,-91.1946,2,cluster_group_2
arkansas,montgomery,34.61515,-93.6715,2,cluster_group_2
arkansas,nevada,33.6602,-93.3078,2,cluster_group_2
arkansas,newton,36.0075,-93.1894,2,cluster_group_2
arkansas,ouachita,33.57765,-92.83385,2,cluster_group_2
arkansas,perry,35.037,-92.8003,2,cluster_group_2
arkansas,phillips,34.476,-90.837,2,cluster_group_2
arkansas,pike,34.2419,-93.6879,2,cluster_group_2
arkansas,poinsett,35.5696,-90.523,2,cluster_group_2
arkansas,polk,34.4088,-94.3386,2,cluster_group_2
arkansas,pope,35.2854,-93.1023,2,cluster_group_2
arkansas,prairie,34.8529,-91.5865,2,cluster_group_2
arkansas,pulaski,34.7654,-92.2777,1,cluster_group_1
arkansas,randolph,36.3383,-90.9419,2,cluster_group_2
arkansas,st. francis,35.0132,-90.783,2,cluster_group_2
arkansas,saline,34.5917,-92.5764,1,cluster_group_1
arkansas,scott,34.83375,-93.99735,2,cluster_group_2
arkansas,searcy,35.9471,-92.74115,2,cluster_group_2
arkansas,sebastian,35.3046,-94.3653,1,cluster_group_1
arkansas,sevier,33.9561,-94.3257,2,cluster_group_2
arkansas,sharp,36.2758,-91.5319,2,cluster_group_2
arkansas,stone,35.86915,-92.2419,2,cluster_group_2
arkansas,union,33.2115,-92.66005,2,cluster_group_2
arkansas,van buren,35.522,-92.4063,2,cluster_group_2
arkansas,washington,36.05915,-94.19075,1,cluster_group_1
arkansas,white,35.2445,-91.743,2,cluster_group_2
arkansas,woodruff,35.20555,-91.23865,2,cluster_group_2
arkansas,yell,35.0259,-93.3977,2,cluster_group_2
california,alameda,37.7769,-122.2115,1,cluster_group_1
california,alpine,38.7329,-119.9432,3,cluster_group_3
california,amador,38.4408,-120.767,1,cluster_group_1
california,butte,39.6374,-121.6274,1,cluster_group_1
california,calaveras,38.1928,-120.5412,1,cluster_group_1
california,colusa,39.18035,-122.10955,1,cluster_group_1
california,contra costa,37.9385,-122.0619,1,cluster_group_1
california,del norte,41.81135,-124.16405,2,cluster_group_2
california,el dorado,38.8139,-120.67005,1,cluster_group_1
california,fresno,36.738,-119.7849,1,cluster_group_1
california,glenn,39.59595,-122.1138,2,cluster_group_2
california,humboldt,40.62325,-124.04415,1,cluster_group_1
california,imperial,32.7983,-115.527,0,cluster_group_0
california,inyo,36.47295,-117.9556,3,cluster_group_3
california,kern,35.36775,-118.98195,1,cluster_group_1
california,kings,36.2565,-119.7948,0,cluster_group_0
california,lake,39.0265,-122.7671,2,cluster_group_2
california,lassen,40.40665,-120.46845,3,cluster_group_3
california,los angeles,34.0715,-118.2642,1,cluster_group_1
california,madera,37.2222,-119.7347,1,cluster_group_1
california,marin,37.9882,-122.5614,1,cluster_group_1
california,mariposa,37.53155,-119.9454,3,cluster_group_3
california,mendocino,39.26395,-123.5586,2,cluster_group_2
california,merced,37.31895,-120.6186,0,cluster_group_0
california,modoc,41.4847,-120.5437,3,cluster_group_3
california,mono,37.956,-119.1202,3,cluster_group_3
california,monterey,36.5959,-121.6657,1,cluster_group_1
california,napa,38.5058,-122.437,1,cluster_group_1
california,nevada,39.2518,-120.99395,1,cluster_group_1
california,orange,33.7485,-117.8657,1,cluster_group_1
california,placer,38.9938,-121.0234,1,cluster_group_1
california,plumas,39.934,-120.9167,3,cluster_group_3
california,riverside,33.7967,-117.1503,1,cluster_group_1
california,sacramento,38.5766,-121.4806,1,cluster_group_1
california,san benito,36.8433,-121.3898,1,cluster_group_1
california,san bernardino,34.1615,-117.2778,1,cluster_group_1
california,san diego,32.8029,-117.11,1,cluster_group_1
california,san francisco,37.7816,-122.4106,1,cluster_group_1
california,san joaquin,37.9647,-121.2876,1,cluster_group_1
california,san luis obispo,35.3107,-120.6607,1,cluster_group_1
california,san mateo,37.53575,-122.33695,1,cluster_group_1
california,santa barbara,34.4401,-119.8461,1,cluster_group_1
california,santa clara,37.3349,-121.91435,1,cluster_group_1
california,santa cruz,36.99055,-122.0033,1,cluster_group_1
california,shasta,40.6771,-122.3131,1,cluster_group_1
california,sierra,39.5675,-120.6734,3,cluster_group_3
california,siskiyou,41.6116,-122.6706,2,cluster_group_2
california,solano,38.2432,-121.99885,1,cluster_group_1
california,sonoma,38.4055,-122.7482,1,cluster_group_1
california,stanislaus,37.62415,-120.9631,1,cluster_group_1
california,sutter,39.1259,-121.6551,1,cluster_group_1
california,tehama,40.06515,-122.14685,2,cluster_group_2
california,trinity,40.7049,-123.1823,2,cluster_group_2
california,tulare,36.3092,-119.2615,0,cluster_group_0
california,tuolumne,37.98665,-120.2607,1,cluster_group_1
california,ventura,34.2513,-119.061,1,cluster_group_1
california,yolo,38.6748,-121.798,1,cluster_group_1
california,yuba,39.36555,-121.29265,1,cluster_group_1
colorado,adams,39.8438,-104.921,1,cluster_group_1
colorado,alamosa,37.5613,-105.87785,0,cluster_group_0
colorado,arapahoe,39.6474,-104.8656,1,cluster_group_1
colorado,archuleta,37.1381,-107.0401,3,cluster_group_3
colorado,baca,37.37545,-102.50245,3,cluster_group_3
colorado,bent,38.0862,-103.0917,0,cluster_group_0
colorado,boulder,40.0188,-105.2436,1,cluster_group_1
colorado,broomfield,39.9236,-105.0662,1,cluster_group_1
colorado,chaffee,38.5528,-106.1583,3,cluster_group_3
colorado,cheyenne,38.82385,-102.5699,3,cluster_group_3
colorado,clear creek,39.7614,-105.6855,3,cluster_group_3
colorado,conejos,37.1742,-106.0132,0,cluster_group_0
colorado,costilla,37.1664,-105.478,0,cluster_group_0
colorado,crowley,38.217,-103.7761,0,cluster_group_0
colorado,custer,38.17345,-105.25405,3,cluster_group_3
colorado,delta,38.7936,-107.9236,2,cluster_group_2
colorado,denver,39.7435,-104.9836,1,cluster_group_1
colorado,dolores,37.6927,-108.8063,2,cluster_group_2
colorado,douglas,39.4853,-104.9019,1,cluster_group_1
colorado,eagle,39.6434,-106.674,1,cluster_group_1
colorado,elbert,39.3564,-104.0832,1,cluster_group_1
colorado,el paso,38.85235,-104.77615,1,cluster_group_1
colorado,fremont,38.3783,-105.2271,2,cluster_group_2
colorado,garfield,39.5353,-107.6011,1,cluster_group_1
colorado,gilpin,39.8677,-105.4953,3,cluster_group_3
colorado,grand,40.04855,-105.87005,3,cluster_group_3
colorado,gunnison,38.5745,-106.9352,3,cluster_group_3
colorado,hinsdale,38.0356,-107.3124,3,cluster_group_3
colorado,huerfano,37.6122,-105.0896,2,cluster_group_2
colorado,jackson,40.5496,-106.2521,3,cluster_group_3
colorado,jefferson,39.7096,-105.1193,1,cluster_group_1
colorado,kiowa,38.4667,-102.9683,3,cluster_group_3
colorado,kit carson,39.31655,-102.66225,3,cluster_group_3
colorado,lake,39.1664,-106.28785,3,cluster_group_3
colorado,la plata,37.2042,-107.86,1,cluster_group_1
colorado,larimer,40.53235,-105.0951,1,cluster_group_1
colorado,las animas,37.2077,-104.5031,3,cluster_group_3
colorado,lincoln,39.2403,-103.5238,3,cluster_group_3
colorado,logan,40.7167,-103.1713,2,cluster_group_2
colorado,mesa,39.103,-108.5479,1,cluster_group_1
colorado,mineral,37.8028,-106.9636,3,cluster_group_3
colorado,moffat,40.5151,-107.5656,3,cluster_group_3
colorado,montezuma,37.4052,-108.6247,2,cluster_group_2
colorado,montrose,38.3682,-108.4172,1,cluster_group_1
colorado,morgan,40.3007,-103.8132,3,cluster_group_3
colorado,otero,38.03195,-103.6749,0,cluster_group_0
colorado,ouray,38.08825,-107.7183,3,cluster_group_3
colorado,park,39.2548,-105.69435,3,cluster_group_3
colorado,phillips,40.624,-102.3861,3,cluster_group_3
colorado,pitkin,39.2417,-106.85815,3,cluster_group_3
colorado,prowers,38.0856,-102.3774,2,cluster_group_2
colorado,pueblo,38.2707,-104.6088,1,cluster_group_1
colorado,rio blanco,40.06745,-108.32995,3,cluster_group_3
colorado,rio grande,37.6301,-106.2521,2,cluster_group_2
colorado,routt,40.4678,-106.8738,1,cluster_group_1
colorado,saguache,38.06705,-106.1199,2,cluster_group_2
colorado,san juan,37.7664,-107.6754,3,cluster_group_3
colorado,san miguel,37.9362,-108.0513,3,cluster_group_3
colorado,sedgwick,40.9037,-102.4051,3,cluster_group_3
colorado,summit,39.6011,-106.0779,1,cluster_group_1
colorado,teller,38.92145,-105.15875,1,cluster_group_1
colorado,washington,39.80075,-103.1851,3,cluster_group_3
colorado,weld,40.408,-104.70265,1,cluster_group_1
colorado,yuma,39.9367,-102.4924,3,cluster_group_3
connecticut,fairfield,41.1626,-73.407,1,cluster_group_1
connecticut,hartford,41.77,-72.6936,1,cluster_group_1
connecticut,litchfield,41.757,-73.22625,1,cluster_group_1
connecticut,middlesex,41.4715,-72.5269,1,cluster_group_1
connecticut,new haven,41.35765,-72.9284,1,cluster_group_1
connecticut,new london,41.4561,-72.09875,1,cluster_group_1
connecticut,tolland,41.82795,-72.3211,1,cluster_group_1
connecticut,windham,41.8447,-71.9417,1,cluster_group_1
delaware,kent,39.1521,-75.5676,1,cluster_group_1
delaware,new castle,39.7415,-75.5993,1,cluster_group_1
delaware,sussex,38.6464,-75.2355,1,cluster_group_1
district of columbia,district of columbia,38.8983,-77.024,1,cluster_group_1
florida,alachua,29.6511,-82.3551,1,cluster_group_1
florida,baker,30.2861,-82.2086,2,cluster_group_2
florida,bay,30.1806,-85.6461,1,cluster_group_1
florida,bradford,29.9062,-82.163,2,cluster_group_2
florida,brevard,28.2675,-80.67,1,cluster_group_1
florida,broward,26.14545,-80.19565,1,cluster_group_1
florida,calhoun,30.44085,-85.1949,2,cluster_group_2
florida,charlotte,26.9537,-82.1154,1,cluster_group_1
florida,citrus,28.8658,-82.4787,1,cluster_group_1
florida,clay,30.07735,-81.8022,1,cluster_group_1
florida,collier,26.16315,-81.72045,1,cluster_group_1
florida,columbia,30.1215,-82.6521,2,cluster_group_2
florida,desoto,27.2172,-81.861,2,cluster_group_2
florida,dixie,29.57175,-83.1333,2,cluster_group_2
florida,duval,30.3083,-81.63515,1,cluster_group_1
florida,escambia,30.4338,-87.2817,1,cluster_group_1
florida,flagler,29.4791,-81.1286,1,cluster_group_1
florida,franklin,29.7276,-84.8762,2,cluster_group_2
florida,gadsden,30.5955,-84.61415,2,cluster_group_2
florida,gilchrist,29.68425,-82.84615,2,cluster_group_2
florida,glades,26.90205,-81.22525,2,cluster_group_2
florida,gulf,29.8271,-85.3046,2,cluster_group_2
florida,hamilton,30.4875,-83.004,2,cluster_group_2
florida,hardee,27.52165,-81.8319,0,cluster_group_0
florida,hendry,26.73915,-81.43655,0,cluster_group_0
florida,hernando,28.52305,-82.4819,1,cluster_group_1
florida,highlands,27.4361,-81.4398,2,cluster_group_2
florida,hillsborough,27.9641,-82.4423,1,cluster_group_1
florida,holmes,30.8703,-85.8316,2,cluster_group_2
florida,indian river,27.6591,-80.4348,1,cluster_group_1
florida,jackson,30.7739,-85.1803,2,cluster_group_2
florida,jefferson,30.4781,-83.9008,2,cluster_group_2
florida,lafayette,30.1402,-83.26625,2,cluster_group_2
florida,lake,28.799,-81.7376,1,cluster_group_1
florida,lee,26.5977,-81.8596,1,cluster_group_1
florida,leon,30.44065,-84.28415,1,cluster_group_1
florida,levy,29.29235,-82.71965,2,cluster_group_2
florida,liberty,30.35635,-84.8959,2,cluster_group_2
florida,madison,30.4763,-83.4031,2,cluster_group_2
florida,manatee,27.465,-82.5579,1,cluster_group_1
florida,marion,29.16215,-82.1116,1,cluster_group_1
florida,martin,27.1643,-80.23465,1,cluster_group_1
florida,miami-dade,25.7789,-80.3011,1,cluster_group_1
florida,monroe,24.7184,-81.06295,1,cluster_group_1
florida,nassau,30.6302,-81.6012,1,cluster_group_1
florida,okaloosa,30.4976,-86.5786,1,cluster_group_1
florida,okeechobee,27.2437,-80.8296,2,cluster_group_2
florida,orange,28.5457,-81.3791,1,cluster_group_1
florida,osceola,28.2692,-81.3607,1,cluster_group_1
florida,palm beach,26.6159,-80.1123,1,cluster_group_1
florida,pasco,28.2526,-82.48255,1,cluster_group_1
florida,pinellas,27.86725,-82.72985,1,cluster_group_1
florida,polk,28.0105,-81.7295,1,cluster_group_1
florida,putnam,29.63375,-81.6555,2,cluster_group_2
florida,st. johns,29.9565,-81.3819,1,cluster_group_1
florida,st. lucie,27.3899,-80.3528,1,cluster_group_1
florida,santa rosa,30.6034,-87.0507,1,cluster_group_1
florida,sarasota,27.2385,-82.4606,1,cluster_group_1
florida,seminole,28.70145,-81.33035,1,cluster_group_1
florida,sumter,28.80035,-82.06135,1,cluster_group_1
florida,suwannee,30.16175,-82.9594,2,cluster_group_2
florida,taylor,30.0078,-83.5862,2,cluster_group_2
florida,union,30,-82.3981,2,cluster_group_2
florida,volusia,29.1145,-81.0971,1,cluster_group_1
florida,wakulla,30.1577,-84.3833,1,cluster_group_1
florida,walton,30.7207,-86.19335,1,cluster_group_1
florida,washington,30.6325,-85.7786,2,cluster_group_2
georgia,appling,31.75135,-82.2681,2,cluster_group_2
georgia,atkinson,31.32,-82.8674,2,cluster_group_2
georgia,bacon,31.5506,-82.4597,2,cluster_group_2
georgia,baker,31.3261,-84.387,2,cluster_group_2
georgia,baldwin,33.0813,-83.2268,2,cluster_group_2
georgia,banks,34.411,-83.49435,2,cluster_group_2
georgia,barrow,33.97545,-83.7363,1,cluster_group_1
georgia,bartow,34.2402,-84.8307,1,cluster_group_1
georgia,ben hill,31.7206,-83.249,2,cluster_group_2
georgia,berrien,31.2894,-83.2161,2,cluster_group_2
georgia,bibb,32.8394,-83.6455,2,cluster_group_2
georgia,bleckley,32.3993,-83.3285,2,cluster_group_2
georgia,brantley,31.1915,-81.9043,2,cluster_group_2
georgia,brooks,30.90575,-83.6183,2,cluster_group_2
georgia,bryan,32.1714,-81.4874,1,cluster_group_1
georgia,bulloch,32.43895,-81.7922,2,cluster_group_2
georgia,burke,33.0918,-82.1864,2,cluster_group_2
georgia,butts,33.2935,-83.9693,2,cluster_group_2
georgia,calhoun,31.52395,-84.65835,2,cluster_group_2
georgia,camden,30.8558,-81.6673,1,cluster_group_1
georgia,candler,32.40415,-82.00825,2,cluster_group_2
georgia,carroll,33.58455,-85.08455,1,cluster_group_1
georgia,catoosa,34.9506,-85.1493,1,cluster_group_1
georgia,charlton,30.6592,-82.0687,2,cluster_group_2
georgia,chatham,32.04465,-81.10935,1,cluster_group_1
georgia,chattahoochee,32.329,-84.8487,3,cluster_group_3
georgia,chattooga,34.5252,-85.37095,2,cluster_group_2
georgia,cherokee,34.2055,-84.5002,1,cluster_group_1
georgia,clarke,33.9501,-83.3691,2,cluster_group_2
georgia,clay,31.6309,-85.0166,2,cluster_group_2
georgia,clayton,33.5616,-84.3542,2,cluster_group_2
georgia,clinch,31.0111,-82.70275,2,cluster_group_2
georgia,cobb,33.9279,-84.5468,1,cluster_group_1
georgia,coffee,31.5289,-82.8667,2,cluster_group_2
georgia,colquitt,31.18365,-83.7462,2,cluster_group_2
georgia,columbia,33.5139,-82.17165,1,cluster_group_1
georgia,cook,31.1655,-83.42915,2,cluster_group_2
georgia,coweta,33.3736,-84.72735,1,cluster_group_1
georgia,crawford,32.7343,-83.9823,2,cluster_group_2
georgia,crisp,31.9545,-83.7773,2,cluster_group_2
georgia,dade,34.8907,-85.4849,3,cluster_group_3
georgia,dawson,34.4056,-84.0915,1,cluster_group_1
georgia,decatur,30.8928,-84.5765,2,cluster_group_2
georgia,dekalb,33.8065,-84.272,1,cluster_group_1
georgia,dodge,32.11655,-83.11615,2,cluster_group_2
georgia,dooly,32.1958,-83.83045,2,cluster_group_2
georgia,dougherty,31.5735,-84.1548,2,cluster_group_2
georgia,douglas,33.7498,-84.7463,1,cluster_group_1
georgia,early,31.3021,-84.9422,2,cluster_group_2
georgia,echols,30.7032,-83.0172,2,cluster_group_2
georgia,effingham,32.2888,-81.32845,1,cluster_group_1
georgia,elbert,34.1974,-82.9427,2,cluster_group_2
georgia,emanuel,32.5066,-82.3402,2,cluster_group_2
georgia,evans,32.1617,-81.91165,2,cluster_group_2
georgia,fannin,34.925,-84.341,2,cluster_group_2
georgia,fayette,33.40025,-84.5645,1,cluster_group_1
georgia,floyd,34.2607,-85.1892,2,cluster_group_2
georgia,forsyth,34.2094,-84.1702,1,cluster_group_1
georgia,franklin,34.32515,-83.14695,2,cluster_group_2
georgia,fulton,33.7566,-84.3915,1,cluster_group_1
georgia,gilmer,34.6856,-84.42705,2,cluster_group_2
georgia,glascock,33.246,-82.65475,3,cluster_group_3
georgia,glynn,31.1818,-81.4868,1,cluster_group_1
georgia,gordon,34.51455,-84.92315,2,cluster_group_2
georgia,grady,30.874,-84.27145,2,cluster_group_2
georgia,greene,33.52435,-83.0882,2,cluster_group_2
georgia,gwinnett,33.9589,-84.0886,1,cluster_group_1
georgia,habersham,34.57285,-83.5436,2,cluster_group_2
georgia,hall,34.2937,-83.826,1,cluster_group_1
georgia,hancock,33.2444,-83.0456,2,cluster_group_2
georgia,haralson,33.79825,-85.2103,2,cluster_group_2
georgia,harris,32.7065,-84.8955,1,cluster_group_1
georgia,hart,34.369,-83.0436,2,cluster_group_2
georgia,heard,33.36495,-85.14455,2,cluster_group_2
georgia,henry,33.4504,-84.1752,1,cluster_group_1
georgia,houston,32.5919,-83.6416,1,cluster_group_1
georgia,irwin,31.6215,-83.3331,2,cluster_group_2
georgia,jackson,34.1849,-83.5655,1,cluster_group_1
georgia,jasper,33.4215,-83.6685,2,cluster_group_2
georgia,jeff davis,31.7258,-82.7212,2,cluster_group_2
georgia,jefferson,33.1629,-82.4007,2,cluster_group_2
georgia,jenkins,32.8652,-81.9341,2,cluster_group_2
georgia,johnson,32.6803,-82.5929,2,cluster_group_2
georgia,jones,33.02265,-83.4914,1,cluster_group_1
georgia,lamar,33.09615,-84.1738,2,cluster_group_2
georgia,lanier,31.00975,-83.02455,2,cluster_group_2
georgia,laurens,32.5168,-82.9626,2,cluster_group_2
georgia,lee,31.7926,-84.21035,1,cluster_group_1
georgia,liberty,31.8285,-81.6,2,cluster_group_2
georgia,lincoln,33.774,-82.4335,2,cluster_group_2
georgia,long,31.773,-81.7387,2,cluster_group_2
georgia,lowndes,30.8488,-83.2814,2,cluster_group_2
georgia,lumpkin,34.5304,-83.9833,1,cluster_group_1
georgia,mcduffie,33.433,-82.4379,2,cluster_group_2
georgia,mcintosh,31.4528,-81.377,2,cluster_group_2
georgia,macon,32.3554,-84.11835,2,cluster_group_2
georgia,madison,34.07475,-83.2355,2,cluster_group_2
georgia,marion,32.4011,-84.47855,2,cluster_group_2
georgia,meriwether,33.047,-84.7108,2,cluster_group_2
georgia,miller,31.1733,-84.6822,2,cluster_group_2
georgia,mitchell,31.2139,-84.153,2,cluster_group_2
georgia,monroe,32.9828,-83.879,2,cluster_group_2
georgia,montgomery,32.1796,-82.5111,2,cluster_group_2
georgia,morgan,33.6146,-83.5053,3,cluster_group_3
georgia,murray,34.9229,-84.7634,2,cluster_group_2
georgia,muscogee,32.511,-84.929,1,cluster_group_1
georgia,newton,33.5769,-83.8709,1,cluster_group_1
georgia,oconee,33.836,-83.451,1,cluster_group_1
georgia,oglethorpe,33.884,-83.158,3,cluster_group_3
georgia,paulding,33.8983,-84.8211,1,cluster_group_1
georgia,peach,32.60735,-83.8223,2,cluster_group_2
georgia,pickens,34.44345,-84.40375,1,cluster_group_1
georgia,pierce,31.3939,-82.1853,2,cluster_group_2
georgia,pike,33.1012,-84.3736,3,cluster_group_3
georgia,polk,33.99065,-85.16615,2,cluster_group_2
georgia,pulaski,32.2754,-83.4923,2,cluster_group_2
georgia,putnam,33.33035,-83.3602,2,cluster_group_2
georgia,quitman,31.83285,-85.01895,2,cluster_group_2
georgia,rabun,34.8577,-83.4088,2,cluster_group_2
georgia,randolph,31.7381,-84.7753,2,cluster_group_2
georgia,richmond,33.4686,-82.0289,2,cluster_group_2
georgia,rockdale,33.6265,-84.0134,1,cluster_group_1
georgia,schley,32.2579,-84.3033,2,cluster_group_2
georgia,screven,32.575,-81.6312,2,cluster_group_2
georgia,seminole,30.98995,-84.844,2,cluster_group_2
georgia,spalding,33.27165,-84.27955,2,cluster_group_2
georgia,stephens,34.5377,-83.2893,2,cluster_group_2
georgia,stewart,32.1411,-84.822,0,cluster_group_0
georgia,sumter,31.99495,-84.15015,2,cluster_group_2
georgia,talbot,32.65655,-84.55245,2,cluster_group_2
georgia,taliaferro,33.5643,-82.83915,2,cluster_group_2
georgia,tattnall,32.06445,-82.1148,2,cluster_group_2
georgia,taylor,32.5442,-84.2565,2,cluster_group_2
georgia,telfair,31.98185,-82.85535,2,cluster_group_2
georgia,terrell,31.8253,-84.4296,2,cluster_group_2
georgia,thomas,30.8587,-83.98325,2,cluster_group_2
georgia,tift,31.4576,-83.4846,2,cluster_group_2
georgia,toombs,32.1918,-82.4134,2,cluster_group_2
georgia,towns,34.94245,-83.8117,2,cluster_group_2
georgia,treutlen,32.3581,-82.55085,2,cluster_group_2
georgia,troup,33.0352,-84.985,2,cluster_group_2
georgia,turner,31.704,-83.5885,2,cluster_group_2
georgia,twiggs,32.6611,-83.3627,2,cluster_group_2
georgia,union,34.8728,-83.9953,2,cluster_group_2
georgia,upson,32.9158,-84.2455,2,cluster_group_2
georgia,walker,34.88855,-85.29945,2,cluster_group_2
georgia,walton,33.7743,-83.7118,1,cluster_group_1
georgia,ware,31.219,-82.4119,2,cluster_group_2
georgia,warren,33.4583,-82.6519,2,cluster_group_2
georgia,washington,32.91575,-82.8143,2,cluster_group_2
georgia,wayne,31.5845,-81.9026,2,cluster_group_2
georgia,webster,32.01075,-84.57955,2,cluster_group_2
georgia,wheeler,32.16555,-82.7425,2,cluster_group_2
georgia,white,34.693,-83.7344,2,cluster_group_2
georgia,whitfield,34.77795,-84.97395,1,cluster_group_1
georgia,wilcox,31.9618,-83.5292,2,cluster_group_2
georgia,wilkes,33.7789,-82.7386,2,cluster_group_2
georgia,wilkinson,32.8123,-83.2226,2,cluster_group_2
georgia,worth,31.5294,-83.82405,2,cluster_group_2
hawaii,hawaii,19.67785,-155.3367,1,cluster_group_1
hawaii,honolulu,21.312,-157.8612,1,cluster_group_1
hawaii,kauai,21.9749,-159.4845,1,cluster_group_1
hawaii,maui,20.8879,-156.472,1,cluster_group_1
idaho,ada,43.6145,-116.2164,1,cluster_group_1
idaho,adams,44.6822,-116.4426,3,cluster_group_3
idaho,bannock,42.8231,-112.34245,1,cluster_group_1
idaho,bear lake,42.2236,-111.385,3,cluster_group_3
idaho,benewah,47.152,-116.73605,3,cluster_group_3
idaho,bingham,43.2111,-112.42685,1,cluster_group_1
idaho,blaine,43.5197,-114.3058,1,cluster_group_1
idaho,boise,44.01465,-115.9616,3,cluster_group_3
idaho,bonner,48.22945,-116.59775,2,cluster_group_2
idaho,bonneville,43.4941,-111.9825,1,cluster_group_1
idaho,boundary,48.7403,-116.3077,3,cluster_group_3
idaho,butte,43.7711,-113.3002,3,cluster_group_3
idaho,camas,43.3474,-114.9622,3,cluster_group_3
idaho,canyon,43.6542,-116.6782,1,cluster_group_1
idaho,caribou,42.6957,-111.6619,3,cluster_group_3
idaho,cassia,42.35535,-113.6236,1,cluster_group_1
idaho,clark,44.27055,-112.2141,3,cluster_group_3
idaho,clearwater,46.49,-116.1796,3,cluster_group_3
idaho,custer,44.3031,-114.2047,3,cluster_group_3
idaho,elmore,42.9738,-115.4818,3,cluster_group_3
idaho,franklin,42.1196,-111.9074,3,cluster_group_3
idaho,fremont,43.98,-111.55205,3,cluster_group_3
idaho,gem,43.9512,-116.4085,2,cluster_group_2
idaho,gooding,42.85135,-114.80415,3,cluster_group_3
idaho,idaho,45.9264,-116.253,3,cluster_group_3
idaho,jefferson,43.71975,-112.07685,1,cluster_group_1
idaho,jerome,42.6003,-114.2256,2,cluster_group_2
idaho,kootenai,47.71735,-116.78885,1,cluster_group_1
idaho,latah,46.7975,-116.8057,2,cluster_group_2
idaho,lemhi,45.12005,-113.8909,3,cluster_group_3
idaho,lewis,46.2413,-116.4622,3,cluster_group_3
idaho,lincoln,42.9941,-114.2617,3,cluster_group_3
idaho,madison,43.81935,-111.78455,2,cluster_group_2
idaho,minidoka,42.64245,-113.7164,2,cluster_group_2
idaho,nez perce,46.43355,-116.61265,1,cluster_group_1
idaho,oneida,42.19725,-112.47395,3,cluster_group_3
idaho,owyhee,43.1586,-116.5017,2,cluster_group_2
idaho,payette,44.0076,-116.919,2,cluster_group_2
idaho,power,42.5423,-112.8263,3,cluster_group_3
idaho,shoshone,47.52245,-116.059,2,cluster_group_2
idaho,teton,43.768,-111.12075,3,cluster_group_3
idaho,twin falls,42.5335,-114.4728,1,cluster_group_1
idaho,valley,44.8312,-116.0835,3,cluster_group_3
idaho,washington,44.4685,-116.6807,2,cluster_group_2
illinois,adams,40.0251,-91.2082,1,cluster_group_1
illinois,alexander,37.15885,-89.30835,2,cluster_group_2
illinois,bond,38.8797,-89.4109,3,cluster_group_3
illinois,boone,42.3687,-88.8413,1,cluster_group_1
illinois,brown,39.9863,-90.7633,3,cluster_group_3
illinois,bureau,41.3898,-89.4265,1,cluster_group_1
illinois,calhoun,39.19385,-90.6239,3,cluster_group_3
illinois,carroll,42.1001,-89.8935,3,cluster_group_3
illinois,cass,39.97265,-90.28165,3,cluster_group_3
illinois,champaign,40.1116,-88.2304,1,cluster_group_1
illinois,christian,39.5497,-89.298,1,cluster_group_1
illinois,clark,39.3133,-87.7237,3,cluster_group_3
illinois,clay,38.6815,-88.4916,3,cluster_group_3
illinois,clinton,38.57835,-89.5429,1,cluster_group_1
illinois,coles,39.508,-88.2245,2,cluster_group_2
illinois,cook,41.881,-87.7372,1,cluster_group_1
illinois,crawford,39.0009,-87.7493,3,cluster_group_3
illinois,cumberland,39.2751,-88.3354,3,cluster_group_3
illinois,dekalb,41.92805,-88.76115,1,cluster_group_1
illinois,de witt,40.1698,-88.9067,3,cluster_group_3
illinois,douglas,39.7983,-88.15825,3,cluster_group_3
illinois,dupage,41.8656,-88.1011,1,cluster_group_1
illinois,edgar,39.67695,-87.83335,3,cluster_group_3
illinois,edwards,38.3794,-88.0108,3,cluster_group_3
illinois,effingham,39.0597,-88.6237,1,cluster_group_1
illinois,fayette,38.9794,-89.02155,2,cluster_group_2
illinois,ford,40.5812,-88.2309,3,cluster_group_3
illinois,franklin,37.9733,-88.977,2,cluster_group_2
illinois,fulton,40.49505,-90.18305,2,cluster_group_2
illinois,gallatin,37.76425,-88.25195,3,cluster_group_3
illinois,greene,39.3586,-90.38505,2,cluster_group_2
illinois,grundy,41.2382,-88.312,1,cluster_group_1
illinois,hamilton,38.0436,-88.53785,3,cluster_group_3
illinois,hancock,40.3973,-91.17925,3,cluster_group_3
illinois,hardin,37.4711,-88.2661,2,cluster_group_2
illinois,henderson,40.769,-90.928,3,cluster_group_3
illinois,henry,41.295,-90.2325,1,cluster_group_1
illinois,iroquois,40.7659,-87.7846,1,cluster_group_1
illinois,jackson,37.7459,-89.3356,2,cluster_group_2
illinois,jasper,39.02,-88.1578,3,cluster_group_3
illinois,jefferson,38.2436,-88.9111,2,cluster_group_2
illinois,jersey,39.0512,-90.339,1,cluster_group_1
illinois,jo daviess,42.4564,-90.1938,1,cluster_group_1
illinois,johnson,37.4682,-88.8868,2,cluster_group_2
illinois,kane,41.9153,-88.3396,1,cluster_group_1
illinois,kankakee,41.1179,-87.8702,1,cluster_group_1
illinois,kendall,41.6559,-88.4851,1,cluster_group_1
illinois,knox,40.9474,-90.277,2,cluster_group_2
illinois,lake,42.3059,-87.9266,1,cluster_group_1
illinois,lasalle,41.335,-88.96895,1,cluster_group_1
illinois,lawrence,38.71925,-87.71625,2,cluster_group_2
illinois,lee,41.7603,-89.2582,1,cluster_group_1
illinois,livingston,40.8922,-88.5125,1,cluster_group_1
illinois,logan,40.11965,-89.3588,1,cluster_group_1
illinois,mcdonough,40.495,-90.6542,2,cluster_group_2
illinois,mchenry,42.2694,-88.3126,1,cluster_group_1
illinois,mclean,40.48455,-88.94115,1,cluster_group_1
illinois,macon,39.84465,-88.95825,1,cluster_group_1
illinois,macoupin,39.1346,-89.8825,1,cluster_group_1
illinois,madison,38.8363,-89.99295,1,cluster_group_1
illinois,marion,38.6231,-89.0298,2,cluster_group_2
illinois,marshall,41.03785,-89.316,3,cluster_group_3
illinois,mason,40.2987,-89.8543,2,cluster_group_2
illinois,massac,37.1976,-88.78425,2,cluster_group_2
illinois,menard,40.006,-89.84485,3,cluster_group_3
illinois,mercer,41.2032,-90.5954,3,cluster_group_3
illinois,monroe,38.3001,-90.1962,1,cluster_group_1
illinois,montgomery,39.2066,-89.4928,2,cluster_group_2
illinois,morgan,39.7345,-90.2299,1,cluster_group_1
illinois,moultrie,39.6453,-88.6421,3,cluster_group_3
illinois,ogle,42.05865,-89.2378,1,cluster_group_1
illinois,peoria,40.70115,-89.6031,1,cluster_group_1
illinois,perry,38.0393,-89.3926,2,cluster_group_2
illinois,piatt,39.9192,-88.5933,3,cluster_group_3
illinois,pike,39.6988,-90.8565,2,cluster_group_2
illinois,pope,37.5051,-88.5241,2,cluster_group_2
illinois,pulaski,37.2112,-89.163,2,cluster_group_2
illinois,putnam,41.2457,-89.25,3,cluster_group_3
illinois,randolph,38.0516,-89.8122,2,cluster_group_2
illinois,richland,38.71405,-88.05855,3,cluster_group_3
illinois,rock island,41.4938,-90.4967,1,cluster_group_1
illinois,st. clair,38.54655,-90.00235,1,cluster_group_1
illinois,saline,37.7371,-88.546,2,cluster_group_2
illinois,sangamon,39.798,-89.65135,1,cluster_group_1
illinois,schuyler,40.14805,-90.59455,3,cluster_group_3
illinois,scott,39.5933,-90.4447,3,cluster_group_3
illinois,shelby,39.3311,-88.82965,1,cluster_group_1
illinois,stark,41.0987,-89.7406,3,cluster_group_3
illinois,stephenson,42.37715,-89.63865,1,cluster_group_1
illinois,tazewell,40.5535,-89.5336,1,cluster_group_1
illinois,union,37.44675,-89.2683,2,cluster_group_2
illinois,vermilion,40.1299,-87.723,2,cluster_group_2
illinois,wabash,38.4081,-87.8334,3,cluster_group_3
illinois,warren,40.86785,-90.6525,3,cluster_group_3
illinois,washington,38.36085,-89.25385,3,cluster_group_3
illinois,wayne,38.3913,-88.4256,3,cluster_group_3
illinois,white,38.13235,-88.2055,3,cluster_group_3
illinois,whiteside,41.74495,-89.9297,1,cluster_group_1
illinois,will,41.515,-88.10455,1,cluster_group_1
illinois,williamson,37.7872,-89.0276,1,cluster_group_1
illinois,winnebago,42.30095,-89.04145,1,cluster_group_1
illinois,woodford,40.7911,-89.2105,1,cluster_group_1
indiana,adams,40.724,-84.9447,2,cluster_group_2
indiana,allen,41.0719,-85.1367,1,cluster_group_1
indiana,bartholomew,39.21695,-85.8704,1,cluster_group_1
indiana,benton,40.5137,-87.3223,3,cluster_group_3
indiana,blackford,40.50195,-85.3216,2,cluster_group_2
indiana,boone,39.997,-86.5358,1,cluster_group_1
indiana,brown,39.2897,-86.24765,3,cluster_group_3
indiana,carroll,40.5967,-86.507,1,cluster_group_1
indiana,cass,40.7646,-86.29835,2,cluster_group_2
indiana,clark,38.3925,-85.74,1,cluster_group_1
indiana,clay,39.44915,-87.1188,1,cluster_group_1
indiana,clinton,40.33835,-86.5094,1,cluster_group_1
indiana,crawford,38.3284,-86.4738,2,cluster_group_2
indiana,daviess,38.73785,-87.0592,3,cluster_group_3
indiana,dearborn,39.11985,-84.94205,1,cluster_group_1
indiana,decatur,39.3351,-85.4706,1,cluster_group_1
indiana,dekalb,41.4269,-85.0488,1,cluster_group_1
indiana,delaware,40.18775,-85.3911,1,cluster_group_1
indiana,dubois,38.36615,-86.89355,1,cluster_group_1
indiana,elkhart,41.6118,-85.8466,1,cluster_group_1
indiana,fayette,39.6414,-85.2427,2,cluster_group_2
indiana,floyd,38.3231,-85.89635,1,cluster_group_1
indiana,fountain,40.1259,-87.19295,3,cluster_group_3
indiana,franklin,39.4039,-84.9984,1,cluster_group_1
indiana,fulton,41.04775,-86.3243,2,cluster_group_2
indiana,gibson,38.2763,-87.502,1,cluster_group_1
indiana,grant,40.4928,-85.64735,2,cluster_group_2
indiana,greene,39.0384,-86.985,2,cluster_group_2
indiana,hamilton,40.0007,-86.0481,1,cluster_group_1
indiana,hancock,39.82925,-85.8051,1,cluster_group_1
indiana,harrison,38.2407,-86.0932,1,cluster_group_1
indiana,hendricks,39.76395,-86.5151,1,cluster_group_1
indiana,henry,39.90895,-85.43955,2,cluster_group_2
indiana,howard,40.4493,-86.1365,1,cluster_group_1
indiana,huntington,40.8849,-85.4996,1,cluster_group_1
indiana,jackson,38.9473,-86.1042,1,cluster_group_1
indiana,jasper,41.1249,-87.14805,1,cluster_group_1
indiana,jay,40.402,-85.05675,2,cluster_group_2
indiana,jefferson,38.7842,-85.4918,2,cluster_group_2
indiana,jennings,38.9857,-85.6561,2,cluster_group_2
indiana,johnson,39.53815,-86.10845,1,cluster_group_1
indiana,knox,38.7699,-87.3168,2,cluster_group_2
indiana,kosciusko,41.2371,-85.8591,1,cluster_group_1
indiana,lagrange,41.6103,-85.36355,3,cluster_group_3
indiana,lake,41.5442,-87.41165,1,cluster_group_1
indiana,laporte,41.58205,-86.7532,1,cluster_group_1
indiana,lawrence,38.8674,-86.5249,1,cluster_group_1
indiana,madison,40.1002,-85.695,1,cluster_group_1
indiana,marion,39.78215,-86.16005,1,cluster_group_1
indiana,marshall,41.349,-86.3082,1,cluster_group_1
indiana,martin,38.6762,-86.8999,3,cluster_group_3
indiana,miami,40.7528,-86.101,2,cluster_group_2
indiana,monroe,39.1681,-86.5325,1,cluster_group_1
indiana,montgomery,40.0353,-86.9223,1,cluster_group_1
indiana,morgan,39.55235,-86.4584,1,cluster_group_1
indiana,newton,40.9546,-87.3621,3,cluster_group_3
indiana,noble,41.38275,-85.44605,1,cluster_group_1
indiana,ohio,38.9259,-84.9057,3,cluster_group_3
indiana,orange,38.53315,-86.45955,2,cluster_group_2
indiana,owen,39.33355,-86.8977,2,cluster_group_2
indiana,parke,39.7636,-87.1962,2,cluster_group_2
indiana,perry,38.0727,-86.59225,3,cluster_group_3
indiana,pike,38.37205,-87.1734,3,cluster_group_3
indiana,porter,41.4887,-87.08365,1,cluster_group_1
indiana,posey,38.13415,-87.828,1,cluster_group_1
indiana,pulaski,41.0585,-86.6342,3,cluster_group_3
indiana,putnam,39.65635,-86.83475,1,cluster_group_1
indiana,randolph,40.1826,-85.0321,2,cluster_group_2
indiana,ripley,39.1317,-85.18805,1,cluster_group_1
indiana,rush,39.6629,-85.4772,3,cluster_group_3
indiana,st. joseph,41.67225,-86.2474,1,cluster_group_1
indiana,scott,38.6834,-85.7994,2,cluster_group_2
indiana,shelby,39.58705,-85.7729,1,cluster_group_1
indiana,spencer,38.0669,-86.9743,1,cluster_group_1
indiana,starke,41.2489,-86.60555,2,cluster_group_2
indiana,steuben,41.6136,-85.02235,1,cluster_group_1
indiana,sullivan,39.1073,-87.393,2,cluster_group_2
indiana,switzerland,38.8517,-84.9881,2,cluster_group_2
indiana,tippecanoe,40.4175,-86.8749,1,cluster_group_1
indiana,tipton,40.29175,-86.07635,3,cluster_group_3
indiana,union,39.65885,-84.97025,3,cluster_group_3
indiana,vanderburgh,37.9742,-87.5683,1,cluster_group_1
indiana,vermillion,39.7871,-87.4536,3,cluster_group_3
indiana,vigo,39.4702,-87.3984,1,cluster_group_1
indiana,wabash,40.9183,-85.771,1,cluster_group_1
indiana,warren,40.2826,-87.36515,3,cluster_group_3
indiana,warrick,38.0429,-87.376,1,cluster_group_1
indiana,washington,38.55165,-86.14365,2,cluster_group_2
indiana,wayne,39.8313,-85.02275,2,cluster_group_2
indiana,wells,40.7366,-85.2226,1,cluster_group_1
indiana,white,40.7624,-86.8649,1,cluster_group_1
indiana,whitley,41.18885,-85.55415,1,cluster_group_1
iowa,adair,41.2947,-94.5636,3,cluster_group_3
iowa,adams,41.01685,-94.7843,3,cluster_group_3
iowa,allamakee,43.2691,-91.3301,3,cluster_group_3
iowa,appanoose,40.7744,-92.8358,3,cluster_group_3
iowa,audubon,41.65615,-94.9144,3,cluster_group_3
iowa,benton,41.9952,-92.0176,1,cluster_group_1
iowa,black hawk,42.477,-92.3249,1,cluster_group_1
iowa,boone,42.05175,-93.88245,1,cluster_group_1
iowa,bremer,42.7683,-92.3215,1,cluster_group_1
iowa,buchanan,42.4682,-91.8744,1,cluster_group_1
iowa,buena vista,42.7505,-95.18065,1,cluster_group_1
iowa,butler,42.7247,-92.84745,3,cluster_group_3
iowa,calhoun,42.41015,-94.59395,3,cluster_group_3
iowa,carroll,42.0544,-94.8467,1,cluster_group_1
iowa,cass,41.3485,-94.94695,3,cluster_group_3
iowa,cedar,41.8116,-91.0952,3,cluster_group_3
iowa,cerro gordo,43.1281,-93.1999,1,cluster_group_1
iowa,cherokee,42.7989,-95.6422,3,cluster_group_3
iowa,chickasaw,43.0687,-92.3576,3,cluster_group_3
iowa,clarke,41.0339,-93.7664,3,cluster_group_3
iowa,clay,43.0599,-95.1483,3,cluster_group_3
iowa,clayton,42.8305,-91.33935,3,cluster_group_3
iowa,clinton,41.85725,-90.4346,1,cluster_group_1
iowa,crawford,42.0672,-95.33495,3,cluster_group_3
iowa,dallas,41.6662,-94.0132,1,cluster_group_1
iowa,davis,40.79135,-92.35165,3,cluster_group_3
iowa,decatur,40.77895,-93.80115,3,cluster_group_3
iowa,delaware,42.4741,-91.3505,3,cluster_group_3
iowa,des moines,40.8512,-91.1766,1,cluster_group_1
iowa,dickinson,43.387,-95.1296,3,cluster_group_3
iowa,dubuque,42.4987,-90.848,1,cluster_group_1
iowa,emmet,43.4,-94.6143,3,cluster_group_3
iowa,fayette,42.8439,-91.8852,3,cluster_group_3
iowa,floyd,43.1465,-92.8704,3,cluster_group_3
iowa,franklin,42.7451,-93.2226,3,cluster_group_3
iowa,fremont,40.7502,-95.6445,3,cluster_group_3
iowa,greene,42.02625,-94.3123,3,cluster_group_3
iowa,grundy,42.3595,-92.7789,3,cluster_group_3
iowa,guthrie,41.7003,-94.4067,3,cluster_group_3
iowa,hamilton,42.3164,-93.6499,3,cluster_group_3
iowa,hancock,43.0524,-93.79265,3,cluster_group_3
iowa,hardin,42.3101,-93.1923,3,cluster_group_3
iowa,harrison,41.71265,-95.8803,3,cluster_group_3
iowa,henry,41.0106,-91.5637,1,cluster_group_1
iowa,howard,43.3702,-92.2922,3,cluster_group_3
iowa,humboldt,42.7811,-94.2498,3,cluster_group_3
iowa,ida,42.3407,-95.471,3,cluster_group_3
iowa,iowa,41.7347,-91.9978,3,cluster_group_3
iowa,jackson,42.1155,-90.5425,3,cluster_group_3
iowa,jasper,41.64545,-93.07765,1,cluster_group_1
iowa,jefferson,41.0073,-92.01545,3,cluster_group_3
iowa,johnson,41.67345,-91.54195,1,cluster_group_1
iowa,jones,42.0834,-91.17185,1,cluster_group_1
iowa,keokuk,41.3585,-92.2478,3,cluster_group_3
iowa,kossuth,43.2078,-94.2157,3,cluster_group_3
iowa,lee,40.714,-91.4529,2,cluster_group_2
iowa,linn,42.0233,-91.6594,1,cluster_group_1
iowa,louisa,41.2587,-91.2375,3,cluster_group_3
iowa,lucas,41.0422,-93.2807,3,cluster_group_3
iowa,lyon,43.3861,-96.26755,3,cluster_group_3
iowa,madison,41.3145,-93.9301,3,cluster_group_3
iowa,mahaska,41.2907,-92.62,1,cluster_group_1
iowa,marion,41.2705,-93.0415,1,cluster_group_1
iowa,marshall,42.0065,-92.9929,1,cluster_group_1
iowa,mills,41.0289,-95.586,3,cluster_group_3
iowa,mitchell,43.389,-92.7603,3,cluster_group_3
iowa,monona,42.048,-95.9113,3,cluster_group_3
iowa,monroe,41.028,-92.9125,3,cluster_group_3
iowa,montgomery,41.0122,-95.12735,2,cluster_group_2
iowa,muscatine,41.472,-91.1278,1,cluster_group_1
iowa,o'brien,43.0948,-95.6394,3,cluster_group_3
iowa,osceola,43.4063,-95.603,3,cluster_group_3
iowa,page,40.6668,-95.2012,3,cluster_group_3
iowa,palo alto,43.1082,-94.7505,3,cluster_group_3
iowa,plymouth,42.7952,-96.2714,1,cluster_group_1
iowa,pocahontas,42.78155,-94.69305,3,cluster_group_3
iowa,polk,41.5979,-93.6371,1,cluster_group_1
iowa,pottawattamie,41.31465,-95.6251,1,cluster_group_1
iowa,poweshiek,41.6821,-92.4885,3,cluster_group_3
iowa,ringgold,40.7166,-94.2335,3,cluster_group_3
iowa,sac,42.36645,-95.0905,3,cluster_group_3
iowa,scott,41.5708,-90.5867,1,cluster_group_1
iowa,shelby,41.7177,-95.3429,3,cluster_group_3
iowa,sioux,43.006,-96.1361,1,cluster_group_1
iowa,story,42.0214,-93.60115,1,cluster_group_1
iowa,tama,42.0796,-92.4738,3,cluster_group_3
iowa,taylor,40.7628,-94.6414,3,cluster_group_3
iowa,union,41.0253,-94.2233,3,cluster_group_3
iowa,van buren,40.71895,-91.95575,3,cluster_group_3
iowa,wapello,41.0196,-92.5037,2,cluster_group_2
iowa,warren,41.3673,-93.5361,1,cluster_group_1
iowa,washington,41.33255,-91.70035,3,cluster_group_3
iowa,wayne,40.7592,-93.3744,3,cluster_group_3
iowa,webster,42.42935,-94.16245,2,cluster_group_2
iowa,winnebago,43.4124,-93.6688,3,cluster_group_3
iowa,winneshiek,43.1928,-91.82925,1,cluster_group_1
iowa,woodbury,42.46235,-96.21525,1,cluster_group_1
iowa,worth,43.3292,-93.2343,3,cluster_group_3
iowa,wright,42.7319,-93.7317,3,cluster_group_3
kansas,allen,37.9158,-95.2999,2,cluster_group_2
kansas,anderson,38.19015,-95.28095,3,cluster_group_3
kansas,atchison,39.53625,-95.27005,3,cluster_group_3
kansas,barber,37.26955,-98.5683,3,cluster_group_3
kansas,barton,38.4496,-98.7818,1,cluster_group_1
kansas,bourbon,37.84445,-94.88745,2,cluster_group_2
kansas,brown,39.8293,-95.5393,3,cluster_group_3
kansas,butler,37.792,-97.0071,1,cluster_group_1
kansas,chase,38.3593,-96.5555,3,cluster_group_3
kansas,chautauqua,37.0723,-96.1791,3,cluster_group_3
kansas,cherokee,37.1597,-94.7476,2,cluster_group_2
kansas,cheyenne,39.7658,-101.66575,3,cluster_group_3
kansas,clark,37.1879,-99.9989,3,cluster_group_3
kansas,clay,39.3724,-97.1367,3,cluster_group_3
kansas,cloud,39.5062,-97.59525,3,cluster_group_3
kansas,coffey,38.15,-95.6897,3,cluster_group_3
kansas,comanche,37.2628,-99.3256,3,cluster_group_3
kansas,cowley,37.3142,-96.7794,2,cluster_group_2
kansas,crawford,37.51625,-94.7052,2,cluster_group_2
kansas,decatur,39.74985,-100.3438,3,cluster_group_3
kansas,dickinson,38.8987,-97.0927,3,cluster_group_3
kansas,doniphan,39.7653,-95.1778,3,cluster_group_3
kansas,douglas,38.94685,-95.2449,1,cluster_group_1
kansas,edwards,37.92895,-99.3369,3,cluster_group_3
kansas,elk,37.3797,-96.2644,3,cluster_group_3
kansas,ellis,38.8647,-99.171,1,cluster_group_1
kansas,ellsworth,38.7081,-98.3273,3,cluster_group_3
kansas,finney,37.9783,-100.8583,1,cluster_group_1
kansas,ford,37.7048,-99.82995,1,cluster_group_1
kansas,franklin,38.5158,-95.2612,1,cluster_group_1
kansas,geary,39.0852,-96.8381,2,cluster_group_2
kansas,gove,39.1014,-100.467,3,cluster_group_3
kansas,graham,39.36615,-99.86035,3,cluster_group_3
kansas,grant,37.5848,-101.3492,3,cluster_group_3
kansas,gray,37.6566,-100.4531,3,cluster_group_3
kansas,greeley,38.4746,-101.7502,3,cluster_group_3
kansas,greenwood,37.876,-96.1507,3,cluster_group_3
kansas,hamilton,38.031,-101.7509,3,cluster_group_3
kansas,harper,37.1802,-98.0295,3,cluster_group_3
kansas,harvey,38.0497,-97.4305,1,cluster_group_1
kansas,haskell,37.4971,-100.9184,3,cluster_group_3
kansas,hodgeman,38.1059,-99.8148,3,cluster_group_3
kansas,jackson,39.48595,-95.7248,3,cluster_group_3
kansas,jefferson,39.2076,-95.3841,3,cluster_group_3
kansas,jewell,39.789,-98.1521,3,cluster_group_3
kansas,johnson,38.9578,-94.71035,1,cluster_group_1
kansas,kearny,37.96565,-101.1954,3,cluster_group_3
kansas,kingman,37.4629,-98.1451,3,cluster_group_3
kansas,kiowa,37.6077,-99.2943,3,cluster_group_3
kansas,labette,37.1836,-95.2839,2,cluster_group_2
kansas,lane,38.53355,-100.5346,3,cluster_group_3
kansas,leavenworth,39.2516,-94.9433,1,cluster_group_1
kansas,lincoln,39.0426,-98.1426,3,cluster_group_3
kansas,linn,38.1826,-94.8193,3,cluster_group_3
kansas,logan,39.0957,-101.0347,3,cluster_group_3
kansas,lyon,38.45985,-96.13475,2,cluster_group_2
kansas,mcpherson,38.3799,-97.6654,1,cluster_group_1
kansas,marion,38.3504,-97.1143,3,cluster_group_3
kansas,marshall,39.8475,-96.5191,3,cluster_group_3
kansas,meade,37.2783,-100.3361,3,cluster_group_3
kansas,miami,38.5924,-94.8605,1,cluster_group_1
kansas,mitchell,39.461,-98.3016,3,cluster_group_3
kansas,montgomery,37.13145,-95.71425,2,cluster_group_2
kansas,morris,38.6593,-96.6743,3,cluster_group_3
kansas,morton,37.1194,-101.7385,3,cluster_group_3
kansas,nemaha,39.8362,-95.972,3,cluster_group_3
kansas,neosho,37.54885,-95.2998,3,cluster_group_3
kansas,ness,38.6248,-99.9382,3,cluster_group_3
kansas,norton,39.791,-99.9405,3,cluster_group_3
kansas,osage,38.6504,-95.668,3,cluster_group_3
kansas,osborne,39.4569,-98.7067,3,cluster_group_3
kansas,ottawa,39.0819,-97.7313,3,cluster_group_3
kansas,pawnee,38.1871,-99.3267,3,cluster_group_3
kansas,phillips,39.766,-99.3277,3,cluster_group_3
kansas,pottawatomie,39.3597,-96.26205,1,cluster_group_1
kansas,pratt,37.6432,-98.7429,3,cluster_group_3
kansas,rawlins,39.81685,-100.9948,3,cluster_group_3
kansas,reno,37.9814,-97.9828,1,cluster_group_1
kansas,republic,39.8022,-97.6304,3,cluster_group_3
kansas,rice,38.3531,-98.25685,3,cluster_group_3
kansas,riley,39.20005,-96.6773,1,cluster_group_1
kansas,rooks,39.3212,-99.3072,3,cluster_group_3
kansas,rush,38.53225,-99.31405,3,cluster_group_3
kansas,russell,38.9697,-98.7462,3,cluster_group_3
kansas,saline,38.8078,-97.6075,1,cluster_group_1
kansas,scott,38.4849,-100.9103,3,cluster_group_3
kansas,sedgwick,37.68385,-97.3591,1,cluster_group_1
kansas,seward,37.0468,-100.9169,0,cluster_group_0
kansas,shawnee,39.04305,-95.6839,1,cluster_group_1
kansas,sheridan,39.44655,-100.5016,3,cluster_group_3
kansas,sherman,39.3663,-101.7224,3,cluster_group_3
kansas,smith,39.76845,-98.88265,3,cluster_group_3
kansas,stafford,37.99325,-98.70825,3,cluster_group_3
kansas,stanton,37.54665,-101.8627,3,cluster_group_3
kansas,stevens,37.2495,-101.2653,3,cluster_group_3
kansas,sumner,37.2702,-97.5506,1,cluster_group_1
kansas,thomas,39.3913,-101.0476,3,cluster_group_3
kansas,trego,39.0188,-99.8875,3,cluster_group_3
kansas,wabaunsee,39.0113,-96.1657,3,cluster_group_3
kansas,wallace,38.8808,-101.7493,3,cluster_group_3
kansas,washington,39.8171,-97.0938,3,cluster_group_3
kansas,wichita,38.4889,-101.2684,3,cluster_group_3
kansas,wilson,37.5841,-95.7176,3,cluster_group_3
kansas,woodson,37.8841,-95.7313,2,cluster_group_2
kansas,wyandotte,39.1053,-94.6723,1,cluster_group_1
kentucky,adair,37.0909,-85.30145,2,cluster_group_2
kentucky,allen,36.6789,-86.1863,2,cluster_group_2
kentucky,anderson,38.0191,-84.9335,1,cluster_group_1
kentucky,ballard,37.0543,-88.972,3,cluster_group_3
kentucky,barren,36.9757,-85.9193,2,cluster_group_2
kentucky,bath,38.1026,-83.7559,2,cluster_group_2
kentucky,bell,36.76195,-83.67455,2,cluster_group_2
kentucky,boone,39.00525,-84.6673,1,cluster_group_1
kentucky,bourbon,38.2088,-84.1959,2,cluster_group_2
kentucky,boyd,38.4297,-82.6698,2,cluster_group_2
kentucky,boyle,37.6205,-84.86085,2,cluster_group_2
kentucky,bracken,38.70415,-84.1232,2,cluster_group_2
kentucky,breathitt,37.5322,-83.3025,2,cluster_group_2
kentucky,breckinridge,37.74425,-86.4295,2,cluster_group_2
kentucky,bullitt,38.0001,-85.6844,1,cluster_group_1
kentucky,butler,37.2246,-86.6793,2,cluster_group_2
kentucky,caldwell,37.1567,-87.9582,2,cluster_group_2
kentucky,calloway,36.6552,-88.29575,2,cluster_group_2
kentucky,campbell,39.0344,-84.4546,1,cluster_group_1
kentucky,carlisle,36.8386,-88.9417,2,cluster_group_2
kentucky,carroll,38.6842,-85.0257,2,cluster_group_2
kentucky,carter,38.27895,-83.0148,2,cluster_group_2
kentucky,casey,37.2579,-84.85795,2,cluster_group_2
kentucky,christian,36.8424,-87.4864,2,cluster_group_2
kentucky,clark,37.9893,-84.1724,1,cluster_group_1
kentucky,clay,37.1456,-83.75605,2,cluster_group_2
kentucky,clinton,36.74475,-85.0694,2,cluster_group_2
kentucky,crittenden,37.2694,-88.0934,2,cluster_group_2
kentucky,cumberland,36.7855,-85.3758,2,cluster_group_2
kentucky,daviess,37.7351,-87.112,1,cluster_group_1
kentucky,edmonson,37.2553,-86.2849,2,cluster_group_2
kentucky,elliott,38.08595,-83.09295,2,cluster_group_2
kentucky,estill,37.7055,-83.93705,2,cluster_group_2
kentucky,fayette,38.0405,-84.503,1,cluster_group_1
kentucky,fleming,38.4012,-83.68635,2,cluster_group_2
kentucky,floyd,37.521,-82.7258,2,cluster_group_2
kentucky,franklin,38.1981,-84.8793,1,cluster_group_1
kentucky,fulton,36.54255,-89.02785,2,cluster_group_2
kentucky,gallatin,38.79785,-84.78025,3,cluster_group_3
kentucky,garrard,37.6703,-84.598,2,cluster_group_2
kentucky,grant,38.6537,-84.598,2,cluster_group_2
kentucky,graves,36.76495,-88.64445,2,cluster_group_2
kentucky,grayson,37.4664,-86.2996,2,cluster_group_2
kentucky,green,37.3559,-85.6267,2,cluster_group_2
kentucky,greenup,38.5471,-82.832,2,cluster_group_2
kentucky,hancock,37.7971,-86.7865,3,cluster_group_3
kentucky,hardin,37.7086,-85.9426,1,cluster_group_1
kentucky,harlan,36.8525,-83.2435,2,cluster_group_2
kentucky,harrison,38.4101,-84.4021,2,cluster_group_2
kentucky,hart,37.2883,-85.8804,2,cluster_group_2
kentucky,henderson,37.8341,-87.57285,2,cluster_group_2
kentucky,henry,38.4549,-85.1561,3,cluster_group_3
kentucky,hickman,36.7183,-89.0425,3,cluster_group_3
kentucky,hopkins,37.25615,-87.504,2,cluster_group_2
kentucky,jackson,37.4247,-84.0033,2,cluster_group_2
kentucky,jefferson,38.21735,-85.69995,1,cluster_group_1
kentucky,jessamine,37.8813,-84.6085,1,cluster_group_1
kentucky,johnson,37.8273,-82.7881,2,cluster_group_2
kentucky,kenton,39.04605,-84.514,1,cluster_group_1
kentucky,knott,37.3509,-82.9073,2,cluster_group_2
kentucky,knox,36.8925,-83.8284,2,cluster_group_2
kentucky,larue,37.5322,-85.6961,2,cluster_group_2
kentucky,laurel,37.1117,-84.0981,2,cluster_group_2
kentucky,lawrence,38.0204,-82.7843,2,cluster_group_2
kentucky,lee,37.58005,-83.66335,2,cluster_group_2
kentucky,leslie,37.06975,-83.39805,2,cluster_group_2
kentucky,letcher,37.1613,-82.7911,2,cluster_group_2
kentucky,lewis,38.5538,-83.288,2,cluster_group_2
kentucky,lincoln,37.44265,-84.7,2,cluster_group_2
kentucky,livingston,37.1683,-88.352,3,cluster_group_3
kentucky,logan,36.8527,-86.8844,2,cluster_group_2
kentucky,lyon,37.0503,-88.1022,3,cluster_group_3
kentucky,mccracken,37.0722,-88.6661,1,cluster_group_1
kentucky,mccreary,36.7097,-84.4598,2,cluster_group_2
kentucky,mclean,37.5096,-87.25865,3,cluster_group_3
kentucky,madison,37.6513,-84.28795,2,cluster_group_2
kentucky,magoffin,37.70735,-82.9879,2,cluster_group_2
kentucky,marion,37.57825,-85.373,2,cluster_group_2
kentucky,marshall,36.90585,-88.30155,1,cluster_group_1
kentucky,martin,37.8371,-82.4459,2,cluster_group_2
kentucky,mason,38.62325,-83.89285,2,cluster_group_2
kentucky,meade,37.976,-86.2026,2,cluster_group_2
kentucky,menifee,37.94225,-83.57775,2,cluster_group_2
kentucky,mercer,37.7726,-84.8519,2,cluster_group_2
kentucky,metcalfe,36.9925,-85.6804,2,cluster_group_2
kentucky,monroe,36.7125,-85.8011,2,cluster_group_2
kentucky,montgomery,38.0092,-83.9,2,cluster_group_2
kentucky,morgan,37.8872,-83.2567,2,cluster_group_2
kentucky,muhlenberg,37.2143,-87.0933,2,cluster_group_2
kentucky,nelson,37.8442,-85.4602,1,cluster_group_1
kentucky,nicholas,38.30965,-83.95785,2,cluster_group_2
kentucky,ohio,37.4443,-86.7726,2,cluster_group_2
kentucky,oldham,38.3879,-85.4568,1,cluster_group_1
kentucky,owen,38.6005,-84.88,2,cluster_group_2
kentucky,owsley,37.41795,-83.6216,2,cluster_group_2
kentucky,pendleton,38.7801,-84.3491,3,cluster_group_3
kentucky,perry,37.2785,-83.1954,2,cluster_group_2
kentucky,pike,37.4787,-82.3368,2,cluster_group_2
kentucky,powell,37.8328,-83.8177,2,cluster_group_2
kentucky,pulaski,37.0862,-84.6121,2,cluster_group_2
kentucky,robertson,38.523,-84.0686,2,cluster_group_2
kentucky,rockcastle,37.38195,-84.315,2,cluster_group_2
kentucky,rowan,38.1691,-83.4296,2,cluster_group_2
kentucky,russell,37.00935,-85.0806,2,cluster_group_2
kentucky,scott,38.268,-84.622,1,cluster_group_1
kentucky,shelby,38.2128,-85.21575,1,cluster_group_1
kentucky,simpson,36.7185,-86.5685,2,cluster_group_2
kentucky,spencer,38.0668,-85.3699,3,cluster_group_3
kentucky,taylor,37.3499,-85.27055,2,cluster_group_2
kentucky,todd,36.7688,-87.15975,2,cluster_group_2
kentucky,trigg,36.8385,-87.8695,2,cluster_group_2
kentucky,trimble,38.6464,-85.3376,3,cluster_group_3
kentucky,union,37.6663,-87.9202,2,cluster_group_2
kentucky,warren,36.95295,-86.4293,1,cluster_group_1
kentucky,washington,37.73345,-85.1847,2,cluster_group_2
kentucky,wayne,36.8386,-84.8449,2,cluster_group_2
kentucky,webster,37.5115,-87.6934,2,cluster_group_2
kentucky,whitley,36.7721,-84.1015,2,cluster_group_2
kentucky,wolfe,37.7291,-83.6123,2,cluster_group_2
kentucky,woodford,38.0641,-84.7219,1,cluster_group_1
louisiana,acadia,30.2342,-92.47705,2,cluster_group_2
louisiana,allen,30.6626,-92.8687,2,cluster_group_2
louisiana,ascension,30.2384,-90.9266,1,cluster_group_1
louisiana,assumption,29.9755,-91.04265,2,cluster_group_2
louisiana,avoyelles,31.03955,-92.05055,2,cluster_group_2
louisiana,beauregard,30.6928,-93.2511,2,cluster_group_2
louisiana,bienville,32.3448,-93.1179,2,cluster_group_2
louisiana,bossier,32.5414,-93.6674,1,cluster_group_1
louisiana,caddo,32.492,-93.7678,1,cluster_group_1
louisiana,calcasieu,30.2268,-93.216,1,cluster_group_1
louisiana,caldwell,32.03225,-92.14275,2,cluster_group_2
louisiana,cameron,29.79425,-93.23575,3,cluster_group_3
louisiana,catahoula,31.7744,-91.8444,2,cluster_group_2
louisiana,claiborne,32.8449,-93.0209,2,cluster_group_2
louisiana,concordia,31.5902,-91.65465,2,cluster_group_2
louisiana,de soto,32.1131,-93.8074,2,cluster_group_2
louisiana,east baton rouge,30.4494,-91.144,1,cluster_group_1
louisiana,east carroll,32.6693,-91.1989,2,cluster_group_2
louisiana,east feliciana,30.84335,-91.09415,2,cluster_group_2
louisiana,evangeline,30.7065,-92.4131,2,cluster_group_2
louisiana,franklin,32.0738,-91.70765,2,cluster_group_2
louisiana,grant,31.5239,-92.5415,2,cluster_group_2
louisiana,iberia,29.9909,-91.7842,1,cluster_group_1
louisiana,iberville,30.2868,-91.2391,2,cluster_group_2
louisiana,jackson,32.27695,-92.70015,2,cluster_group_2
louisiana,jefferson,29.98175,-90.15635,1,cluster_group_1
louisiana,jefferson davis,30.2384,-92.7338,2,cluster_group_2
louisiana,lafayette,30.2141,-92.02485,1,cluster_group_1
louisiana,lafourche,29.69345,-90.53035,1,cluster_group_1
louisiana,lasalle,31.8299,-92.2258,2,cluster_group_2
louisiana,lincoln,32.5305,-92.6396,2,cluster_group_2
louisiana,livingston,30.4699,-90.8043,1,cluster_group_1
louisiana,madison,32.4006,-91.1846,2,cluster_group_2
louisiana,morehouse,32.7794,-91.7805,2,cluster_group_2
louisiana,natchitoches,31.7551,-93.0912,2,cluster_group_2
louisiana,orleans,29.9519,-90.0721,2,cluster_group_2
louisiana,ouachita,32.52665,-92.0855,1,cluster_group_1
louisiana,plaquemines,29.456,-89.67415,1,cluster_group_1
louisiana,pointe coupee,30.6289,-91.50375,2,cluster_group_2
louisiana,rapides,31.2841,-92.46465,1,cluster_group_1
louisiana,red river,32.1037,-93.29725,2,cluster_group_2
louisiana,richland,32.4273,-91.777,2,cluster_group_2
louisiana,sabine,31.6055,-93.5495,2,cluster_group_2
louisiana,st. bernard,29.94005,-89.9406,2,cluster_group_2
louisiana,st. charles,29.95375,-90.387,1,cluster_group_1
louisiana,st. helena,30.78065,-90.75585,2,cluster_group_2
louisiana,st. james,30.0419,-90.749,1,cluster_group_1
louisiana,st. john the baptist,30.0611,-90.56095,1,cluster_group_1
louisiana,st. landry,30.5321,-92.0812,2,cluster_group_2
louisiana,st. martin,30.2138,-91.8396,2,cluster_group_2
louisiana,st. mary,29.73305,-91.38695,2,cluster_group_2
louisiana,st. tammany,30.4181,-89.99155,1,cluster_group_1
louisiana,tangipahoa,30.5607,-90.4752,1,cluster_group_1
louisiana,tensas,31.9342,-91.3113,2,cluster_group_2
louisiana,terrebonne,29.5924,-90.7244,1,cluster_group_1
louisiana,union,32.85105,-92.472,2,cluster_group_2
louisiana,vermilion,29.971,-92.13945,1,cluster_group_1
louisiana,vernon,31.13515,-93.25305,1,cluster_group_1
louisiana,washington,30.89545,-89.87285,2,cluster_group_2
louisiana,webster,32.6323,-93.3137,2,cluster_group_2
louisiana,west baton rouge,30.4339,-91.26355,1,cluster_group_1
louisiana,west carroll,32.7932,-91.4243,2,cluster_group_2
louisiana,west feliciana,30.8862,-91.4081,3,cluster_group_3
louisiana,winn,31.95155,-92.6544,2,cluster_group_2
maine,androscoggin,44.0973,-70.22945,1,cluster_group_1
maine,aroostook,46.7633,-68.1698,2,cluster_group_2
maine,cumberland,43.7632,-70.2817,1,cluster_group_1
maine,franklin,44.6775,-70.23485,2,cluster_group_2
maine,hancock,44.3944,-68.373,1,cluster_group_1
maine,kennebec,44.34405,-69.78945,1,cluster_group_1
maine,knox,44.07445,-69.1506,3,cluster_group_3
maine,lincoln,43.9441,-69.55675,3,cluster_group_3
maine,oxford,44.3231,-70.69065,2,cluster_group_2
maine,penobscot,44.9627,-68.7155,1,cluster_group_1
maine,piscataquis,45.27505,-69.35945,2,cluster_group_2
maine,sagadahoc,43.9454,-69.8294,1,cluster_group_1
maine,somerset,44.89225,-69.7176,2,cluster_group_2
maine,waldo,44.492,-69.11925,3,cluster_group_3
maine,washington,44.9,-67.5498,2,cluster_group_2
maine,york,43.4726,-70.68005,1,cluster_group_1
maryland,allegany,39.6511,-78.8499,2,cluster_group_2
maryland,anne arundel,39.0276,-76.5766,1,cluster_group_1
maryland,baltimore,39.41865,-76.6141,1,cluster_group_1
maryland,calvert,38.5247,-76.5423,1,cluster_group_1
maryland,caroline,38.9481,-75.8137,1,cluster_group_1
maryland,carroll,39.5865,-76.9752,1,cluster_group_1
maryland,cecil,39.5975,-75.9486,1,cluster_group_1
maryland,charles,38.5116,-76.9548,1,cluster_group_1
maryland,dorchester,38.4874,-76.0751,2,cluster_group_2
maryland,frederick,39.4249,-77.40445,1,cluster_group_1
maryland,garrett,39.5553,-79.2374,3,cluster_group_3
maryland,harford,39.52705,-76.3077,1,cluster_group_1
maryland,howard,39.2157,-76.8747,1,cluster_group_1
maryland,kent,39.31195,-76.0539,3,cluster_group_3
maryland,montgomery,39.0764,-77.0974,1,cluster_group_1
maryland,prince george's,38.9399,-76.8912,1,cluster_group_1
maryland,queen anne's,39.11385,-75.97895,1,cluster_group_1
maryland,st. mary's,38.2574,-76.52825,1,cluster_group_1
maryland,somerset,38.1036,-75.7504,2,cluster_group_2
maryland,talbot,38.7762,-76.2253,1,cluster_group_1
maryland,washington,39.643,-77.7203,1,cluster_group_1
maryland,wicomico,38.3656,-75.6198,1,cluster_group_1
maryland,worcester,38.3075,-75.2933,1,cluster_group_1
maryland,baltimore city,39.2959,-76.6123,1,cluster_group_1
massachusetts,barnstable,41.6888,-70.2723,1,cluster_group_1
massachusetts,berkshire,42.3314,-73.2455,1,cluster_group_1
massachusetts,bristol,41.7631,-71.0913,1,cluster_group_1
massachusetts,dukes,41.3955,-70.6413,3,cluster_group_3
massachusetts,essex,42.6442,-70.9542,1,cluster_group_1
massachusetts,franklin,42.5877,-72.5563,1,cluster_group_1
massachusetts,hampden,42.1183,-72.5698,1,cluster_group_1
massachusetts,hampshire,42.3735,-72.6379,1,cluster_group_1
massachusetts,middlesex,42.4245,-71.2516,1,cluster_group_1
massachusetts,nantucket,41.277,-70.0995,3,cluster_group_3
massachusetts,norfolk,42.209,-71.1743,1,cluster_group_1
massachusetts,plymouth,42.0352,-70.81155,1,cluster_group_1
massachusetts,suffolk,42.34895,-71.06065,1,cluster_group_1
massachusetts,worcester,42.27055,-71.8043,1,cluster_group_1
michigan,alcona,44.6851,-83.4441,2,cluster_group_2
michigan,alger,46.3644,-86.9187,3,cluster_group_3
michigan,allegan,42.63585,-85.8041,1,cluster_group_1
michigan,alpena,45.0085,-83.5967,2,cluster_group_2
michigan,antrim,44.99075,-85.26235,2,cluster_group_2
michigan,arenac,44.0566,-83.8877,2,cluster_group_2
michigan,baraga,46.7686,-88.4977,2,cluster_group_2
michigan,barry,42.59535,-85.35035,1,cluster_group_1
michigan,bay,43.6076,-83.9776,1,cluster_group_1
michigan,benzie,44.6329,-86.0394,3,cluster_group_3
michigan,berrien,41.9519,-86.4648,1,cluster_group_1
michigan,branch,41.9235,-85.06835,1,cluster_group_1
michigan,calhoun,42.2703,-85.1803,1,cluster_group_1
michigan,cass,41.8955,-85.8862,1,cluster_group_1
michigan,charlevoix,45.2659,-85.1298,1,cluster_group_1
michigan,cheboygan,45.4284,-84.5577,2,cluster_group_2
michigan,chippewa,46.2626,-84.4586,2,cluster_group_2
michigan,clare,43.8713,-84.8779,2,cluster_group_2
michigan,clinton,43.00225,-84.56895,1,cluster_group_1
michigan,crawford,44.6727,-84.7268,2,cluster_group_2
michigan,delta,45.8511,-87.0711,2,cluster_group_2
michigan,dickinson,45.8351,-87.9075,1,cluster_group_1
michigan,eaton,42.6416,-84.78735,1,cluster_group_1
michigan,emmet,45.48675,-84.8137,1,cluster_group_1
michigan,genesee,43.01,-83.6936,1,cluster_group_1
michigan,gladwin,43.8674,-84.4248,2,cluster_group_2
michigan,gogebic,46.4731,-89.97185,2,cluster_group_2
michigan,grand traverse,44.7046,-85.5451,1,cluster_group_1
michigan,gratiot,43.3009,-84.6005,2,cluster_group_2
michigan,hillsdale,41.95985,-84.58945,2,cluster_group_2
michigan,houghton,47.1081,-88.5743,2,cluster_group_2
michigan,huron,43.8295,-82.9951,2,cluster_group_2
michigan,ingham,42.6994,-84.524,1,cluster_group_1
michigan,ionia,43.0015,-85.0663,1,cluster_group_1
michigan,iosco,44.3172,-83.6763,2,cluster_group_2
michigan,iron,46.0859,-88.5757,2,cluster_group_2
michigan,isabella,43.5951,-84.775,2,cluster_group_2
michigan,jackson,42.2274,-84.4032,1,cluster_group_1
michigan,kalamazoo,42.2659,-85.568,1,cluster_group_1
michigan,kalkaska,44.6824,-85.2514,2,cluster_group_2
michigan,kent,42.9636,-85.63065,1,cluster_group_1
michigan,keweenaw,47.3589,-88.2907,3,cluster_group_3
michigan,lake,43.8945,-85.7844,2,cluster_group_2
michigan,lapeer,43.0538,-83.2129,1,cluster_group_1
michigan,leelanau,44.9698,-85.7549,1,cluster_group_1
michigan,lenawee,41.897,-84.0417,1,cluster_group_1
michigan,livingston,42.57835,-83.91345,1,cluster_group_1
michigan,luce,46.3247,-85.6246,2,cluster_group_2
michigan,mackinac,46.04495,-84.8344,2,cluster_group_2
michigan,macomb,42.5912,-82.9483,1,cluster_group_1
michigan,manistee,44.3378,-86.17895,2,cluster_group_2
michigan,marquette,46.4769,-87.5927,1,cluster_group_1
michigan,mason,43.9601,-86.2002,2,cluster_group_2
michigan,mecosta,43.6942,-85.3154,2,cluster_group_2
michigan,menominee,45.5991,-87.5531,2,cluster_group_2
michigan,midland,43.6356,-84.2617,1,cluster_group_1
michigan,missaukee,44.2913,-85.09055,2,cluster_group_2
michigan,monroe,41.8988,-83.5656,1,cluster_group_1
michigan,montcalm,43.3381,-85.0954,2,cluster_group_2
michigan,montmorency,45.0151,-84.1479,2,cluster_group_2
michigan,muskegon,43.2353,-86.2162,1,cluster_group_1
michigan,newaygo,43.4689,-85.829,1,cluster_group_1
michigan,oakland,42.5775,-83.28795,1,cluster_group_1
michigan,oceana,43.6424,-86.35205,2,cluster_group_2
michigan,ogemaw,44.3395,-84.06475,2,cluster_group_2
michigan,ontonagon,46.7369,-89.1791,2,cluster_group_2
michigan,osceola,43.8984,-85.4116,2,cluster_group_2
michigan,oscoda,44.69405,-84.0838,2,cluster_group_2
michigan,otsego,44.9963,-84.671,1,cluster_group_1
michigan,ottawa,42.9293,-86.0102,1,cluster_group_1
michigan,presque isle,45.3325,-83.87985,2,cluster_group_2
michigan,roscommon,44.3388,-84.70545,2,cluster_group_2
michigan,saginaw,43.4142,-83.9744,1,cluster_group_1
michigan,st. clair,42.9335,-82.5973,1,cluster_group_1
michigan,st. joseph,41.91825,-85.4512,1,cluster_group_1
michigan,sanilac,43.4265,-82.757,2,cluster_group_2
michigan,schoolcraft,46.0167,-86.0196,2,cluster_group_2
michigan,shiawassee,42.9139,-84.094,1,cluster_group_1
michigan,tuscola,43.4706,-83.388,1,cluster_group_1
michigan,van buren,42.3115,-86.0574,1,cluster_group_1
michigan,washtenaw,42.26935,-83.73585,1,cluster_group_1
michigan,wayne,42.33065,-83.15515,1,cluster_group_1
michigan,wexford,44.35085,-85.63895,2,cluster_group_2
minnesota,aitkin,46.67215,-93.42655,2,cluster_group_2
minnesota,anoka,45.1806,-93.2601,1,cluster_group_1
minnesota,becker,46.90995,-95.8394,1,cluster_group_1
minnesota,beltrami,47.7309,-94.8694,1,cluster_group_1
minnesota,benton,45.6923,-94.03545,1,cluster_group_1
minnesota,big stone,45.4516,-96.4398,3,cluster_group_3
minnesota,blue earth,44.0784,-94.004,1,cluster_group_1
minnesota,brown,44.2409,-94.6035,1,cluster_group_1
minnesota,carlton,46.6253,-92.6186,1,cluster_group_1
minnesota,carver,44.8108,-93.8454,1,cluster_group_1
minnesota,cass,46.9612,-94.3201,2,cluster_group_2
minnesota,chippewa,44.9692,-95.7072,3,cluster_group_3
minnesota,chisago,45.4088,-92.972,1,cluster_group_1
minnesota,clay,46.8736,-96.66595,1,cluster_group_1
minnesota,clearwater,47.682,-95.4189,3,cluster_group_3
minnesota,cook,47.7592,-90.5054,3,cluster_group_3
minnesota,cottonwood,43.9653,-95.1242,3,cluster_group_3
minnesota,crow wing,46.5029,-94.1236,1,cluster_group_1
minnesota,dakota,44.75615,-93.13025,1,cluster_group_1
minnesota,dodge,44.03985,-92.8419,1,cluster_group_1
minnesota,douglas,45.9325,-95.5208,1,cluster_group_1
minnesota,faribault,43.7298,-93.9221,3,cluster_group_3
minnesota,fillmore,43.6996,-92.08755,1,cluster_group_1
minnesota,freeborn,43.66095,-93.3926,1,cluster_group_1
minnesota,goodhue,44.41325,-92.6961,1,cluster_group_1
minnesota,grant,45.8791,-95.99755,3,cluster_group_3
minnesota,hennepin,44.97655,-93.3319,1,cluster_group_1
minnesota,houston,43.6856,-91.4465,3,cluster_group_3
minnesota,hubbard,47.1576,-94.8563,3,cluster_group_3
minnesota,isanti,45.65035,-93.2191,1,cluster_group_1
minnesota,itasca,47.3626,-93.5202,1,cluster_group_1
minnesota,jackson,43.6847,-95.2509,3,cluster_group_3
minnesota,kanabec,45.8849,-93.2941,3,cluster_group_3
minnesota,kandiyohi,45.141,-95.04225,1,cluster_group_1
minnesota,kittson,48.76055,-96.8933,3,cluster_group_3
minnesota,koochiching,48.48385,-93.68535,3,cluster_group_3
minnesota,lac qui parle,45.0013,-96.1842,3,cluster_group_3
minnesota,lake,47.2817,-91.4227,3,cluster_group_3
minnesota,lake of the woods,49.04375,-94.88855,3,cluster_group_3
minnesota,le sueur,44.3145,-93.722,1,cluster_group_1
minnesota,lincoln,44.3987,-96.2453,3,cluster_group_3
minnesota,lyon,44.4178,-95.88725,1,cluster_group_1
minnesota,mcleod,44.8317,-94.17805,1,cluster_group_1
minnesota,mahnomen,47.3819,-95.78725,2,cluster_group_2
minnesota,marshall,48.3346,-96.4791,3,cluster_group_3
minnesota,martin,43.6767,-94.6598,1,cluster_group_1
minnesota,meeker,45.1116,-94.5273,1,cluster_group_1
minnesota,mille lacs,45.7741,-93.60525,1,cluster_group_1
minnesota,morrison,45.9787,-94.4202,1,cluster_group_1
minnesota,mower,43.69385,-92.7521,1,cluster_group_1
minnesota,murray,43.9933,-95.755,3,cluster_group_3
minnesota,nicollet,44.2849,-94.1905,1,cluster_group_1
minnesota,nobles,43.6271,-95.81325,1,cluster_group_1
minnesota,norman,47.2644,-96.5152,3,cluster_group_3
minnesota,olmsted,44.027,-92.4784,1,cluster_group_1
minnesota,otter tail,46.38825,-95.6914,1,cluster_group_1
minnesota,pennington,48.05975,-95.99275,3,cluster_group_3
minnesota,pine,46.16435,-92.8696,2,cluster_group_2
minnesota,pipestone,44.0089,-96.1778,3,cluster_group_3
minnesota,polk,47.6531,-96.39485,1,cluster_group_1
minnesota,pope,45.6314,-95.5266,3,cluster_group_3
minnesota,ramsey,44.954,-93.0918,1,cluster_group_1
minnesota,red lake,47.87375,-96.023,3,cluster_group_3
minnesota,redwood,44.40535,-95.2977,3,cluster_group_3
minnesota,renville,44.7544,-94.93615,3,cluster_group_3
minnesota,rice,44.3481,-93.3746,1,cluster_group_1
minnesota,rock,43.65095,-96.23345,3,cluster_group_3
minnesota,roseau,48.80585,-95.73805,3,cluster_group_3
minnesota,st. louis,47.36855,-92.3865,1,cluster_group_1
minnesota,scott,44.64,-93.461,1,cluster_group_1
minnesota,sherburne,45.43715,-93.7816,1,cluster_group_1
minnesota,sibley,44.5532,-94.2178,3,cluster_group_3
minnesota,stearns,45.565,-94.331,1,cluster_group_1
minnesota,steele,43.9604,-93.2366,1,cluster_group_1
minnesota,stevens,45.55365,-95.9849,3,cluster_group_3
minnesota,swift,45.2764,-95.72495,3,cluster_group_3
minnesota,todd,46.1268,-94.94575,3,cluster_group_3
minnesota,traverse,45.7389,-96.4495,3,cluster_group_3
minnesota,wabasha,44.283,-92.2152,1,cluster_group_1
minnesota,wadena,46.538,-95.07835,2,cluster_group_2
minnesota,waseca,44.0059,-93.6856,3,cluster_group_3
minnesota,washington,44.9958,-92.9364,1,cluster_group_1
minnesota,watonwan,43.9879,-94.6285,3,cluster_group_3
minnesota,wilkin,46.2671,-96.4061,3,cluster_group_3
minnesota,winona,44.0429,-91.8019,1,cluster_group_1
minnesota,wright,45.16595,-93.88885,1,cluster_group_1
minnesota,yellow medicine,44.6916,-95.6324,3,cluster_group_3
mississippi,adams,31.5626,-91.4042,2,cluster_group_2
mississippi,alcorn,34.901,-88.5195,2,cluster_group_2
mississippi,amite,31.2046,-90.8006,2,cluster_group_2
mississippi,attala,33.029,-89.6885,2,cluster_group_2
mississippi,benton,34.8805,-89.2122,2,cluster_group_2
mississippi,bolivar,33.8139,-90.76475,2,cluster_group_2
mississippi,calhoun,33.8705,-89.33365,2,cluster_group_2
mississippi,carroll,33.5149,-89.9198,2,cluster_group_2
mississippi,chickasaw,33.8999,-89.0003,2,cluster_group_2
mississippi,choctaw,33.3095,-89.293,2,cluster_group_2
mississippi,claiborne,31.9569,-90.7933,2,cluster_group_2
mississippi,clarke,32.0527,-88.7829,2,cluster_group_2
mississippi,clay,33.6072,-88.7619,2,cluster_group_2
mississippi,coahoma,34.22685,-90.5728,2,cluster_group_2
mississippi,copiah,31.8837,-90.3784,2,cluster_group_2
mississippi,covington,31.6481,-89.561,2,cluster_group_2
mississippi,desoto,34.9446,-89.9962,1,cluster_group_1
mississippi,forrest,31.3225,-89.3051,2,cluster_group_2
mississippi,franklin,31.47765,-90.85425,2,cluster_group_2
mississippi,george,30.8758,-88.5739,2,cluster_group_2
mississippi,greene,31.1723,-88.65985,2,cluster_group_2
mississippi,grenada,33.7781,-89.82785,2,cluster_group_2
mississippi,hancock,30.3119,-89.416,1,cluster_group_1
mississippi,harrison,30.4002,-89.03975,1,cluster_group_1
mississippi,hinds,32.306,-90.2013,2,cluster_group_2
mississippi,holmes,33.0979,-90.02795,2,cluster_group_2
mississippi,humphreys,33.0724,-90.5731,2,cluster_group_2
mississippi,issaquena,32.9021,-90.9668,2,cluster_group_2
mississippi,itawamba,34.3226,-88.3962,2,cluster_group_2
mississippi,jackson,30.4081,-88.5456,1,cluster_group_1
mississippi,jasper,31.9971,-89.10955,2,cluster_group_2
mississippi,jefferson,31.70675,-91.052,2,cluster_group_2
mississippi,jefferson davis,31.49365,-89.8366,2,cluster_group_2
mississippi,jones,31.6943,-89.13395,2,cluster_group_2
mississippi,kemper,32.7358,-88.6861,2,cluster_group_2
mississippi,lafayette,34.3577,-89.5208,1,cluster_group_1
mississippi,lamar,31.24755,-89.44505,1,cluster_group_1
mississippi,lauderdale,32.42035,-88.69975,2,cluster_group_2
mississippi,lawrence,31.5935,-90.1292,2,cluster_group_2
mississippi,leake,32.7127,-89.4945,2,cluster_group_2
mississippi,lee,34.25285,-88.7034,2,cluster_group_2
mississippi,leflore,33.51865,-90.3344,2,cluster_group_2
mississippi,lincoln,31.5721,-90.4452,2,cluster_group_2
mississippi,lowndes,33.5326,-88.4249,2,cluster_group_2
mississippi,madison,32.4846,-90.1235,1,cluster_group_1
mississippi,marion,31.2234,-89.8983,2,cluster_group_2
mississippi,marshall,34.77645,-89.481,2,cluster_group_2
mississippi,monroe,33.9388,-88.4103,2,cluster_group_2
mississippi,montgomery,33.481,-89.6872,2,cluster_group_2
mississippi,neshoba,32.6961,-89.12155,2,cluster_group_2
mississippi,newton,32.3412,-89.1126,2,cluster_group_2
mississippi,noxubee,33.1141,-88.5357,2,cluster_group_2
mississippi,oktibbeha,33.4525,-88.8342,2,cluster_group_2
mississippi,panola,34.3657,-89.9121,2,cluster_group_2
mississippi,pearl river,30.629,-89.6531,2,cluster_group_2
mississippi,perry,31.21,-88.9145,2,cluster_group_2
mississippi,pike,31.1855,-90.4566,2,cluster_group_2
mississippi,pontotoc,34.27825,-89.0186,2,cluster_group_2
mississippi,prentiss,34.56,-88.5782,2,cluster_group_2
mississippi,quitman,34.2661,-90.2754,2,cluster_group_2
mississippi,rankin,32.269,-90.0429,1,cluster_group_1
mississippi,scott,32.3541,-89.4866,2,cluster_group_2
mississippi,sharkey,32.9782,-90.862,2,cluster_group_2
mississippi,simpson,31.9567,-89.93605,2,cluster_group_2
mississippi,smith,31.95105,-89.52695,2,cluster_group_2
mississippi,stone,30.7057,-89.1435,2,cluster_group_2
mississippi,sunflower,33.5481,-90.536,2,cluster_group_2
mississippi,tallahatchie,33.9164,-90.2094,2,cluster_group_2
mississippi,tate,34.6188,-89.964,2,cluster_group_2
mississippi,tippah,34.79665,-88.91345,2,cluster_group_2
mississippi,tishomingo,34.6579,-88.2532,2,cluster_group_2
mississippi,tunica,34.6914,-90.374,2,cluster_group_2
mississippi,union,34.45965,-89.07185,2,cluster_group_2
mississippi,walthall,31.1314,-90.1374,2,cluster_group_2
mississippi,warren,32.3155,-90.8565,2,cluster_group_2
mississippi,washington,33.3944,-91.0504,2,cluster_group_2
mississippi,wayne,31.6772,-88.6391,2,cluster_group_2
mississippi,webster,33.55135,-89.27165,2,cluster_group_2
mississippi,wilkinson,31.1242,-91.1687,2,cluster_group_2
mississippi,winston,33.0937,-89.0875,2,cluster_group_2
mississippi,yalobusha,34.02795,-89.78075,2,cluster_group_2
mississippi,yazoo,32.8095,-90.4108,2,cluster_group_2
missouri,adair,40.189,-92.5563,2,cluster_group_2
missouri,andrew,39.9856,-94.82825,3,cluster_group_3
missouri,atchison,40.4436,-95.3855,3,cluster_group_3
missouri,audrain,39.21015,-91.69935,2,cluster_group_2
missouri,barry,36.6764,-93.9303,2,cluster_group_2
missouri,barton,37.4871,-94.39665,2,cluster_group_2
missouri,bates,38.21295,-94.46185,2,cluster_group_2
missouri,benton,38.2969,-93.22925,2,cluster_group_2
missouri,bollinger,37.2849,-90.01995,2,cluster_group_2
missouri,boone,38.9526,-92.3231,1,cluster_group_1
missouri,buchanan,39.74145,-94.8289,1,cluster_group_1
missouri,butler,36.72085,-90.3373,2,cluster_group_2
missouri,caldwell,39.6375,-93.9905,3,cluster_group_3
missouri,callaway,38.76465,-91.92845,1,cluster_group_1
missouri,camden,38.0745,-92.7551,1,cluster_group_1
missouri,cape girardeau,37.357,-89.6668,1,cluster_group_1
missouri,carroll,39.44815,-93.4617,3,cluster_group_3
missouri,carter,36.9118,-90.92115,2,cluster_group_2
missouri,cass,38.66425,-94.4069,1,cluster_group_1
missouri,cedar,37.6961,-93.8099,2,cluster_group_2
missouri,chariton,39.4715,-93.0256,3,cluster_group_3
missouri,christian,36.9603,-93.2174,1,cluster_group_1
missouri,clark,40.3946,-91.6794,3,cluster_group_3
missouri,clay,39.2484,-94.4835,1,cluster_group_1
missouri,clinton,39.5603,-94.3152,1,cluster_group_1
missouri,cole,38.5739,-92.173,1,cluster_group_1
missouri,cooper,38.8511,-92.7876,3,cluster_group_3
missouri,crawford,37.9064,-91.31065,2,cluster_group_2
missouri,dade,37.41335,-93.8366,3,cluster_group_3
missouri,dallas,37.7267,-92.968,2,cluster_group_2
missouri,daviess,39.9439,-93.99455,3,cluster_group_3
missouri,dekalb,39.8939,-94.4787,2,cluster_group_2
missouri,dent,37.6311,-91.5704,2,cluster_group_2
missouri,douglas,36.9306,-92.3634,2,cluster_group_2
missouri,dunklin,36.2392,-90.0278,2,cluster_group_2
missouri,franklin,38.4144,-90.9323,1,cluster_group_1
missouri,gasconade,38.4858,-91.4956,2,cluster_group_2
missouri,gentry,40.20865,-94.41525,3,cluster_group_3
missouri,greene,37.204,-93.2905,1,cluster_group_1
missouri,grundy,40.1111,-93.5139,2,cluster_group_2
missouri,harrison,40.3698,-94.0138,3,cluster_group_3
missouri,henry,38.45865,-93.84855,2,cluster_group_2
missouri,hickory,37.9312,-93.3373,2,cluster_group_2
missouri,holt,40.1415,-95.1919,3,cluster_group_3
missouri,howard,39.1418,-92.7083,3,cluster_group_3
missouri,howell,36.76935,-91.87885,2,cluster_group_2
missouri,iron,37.61555,-90.6576,2,cluster_group_2
missouri,jackson,39.05385,-94.52615,1,cluster_group_1
missouri,jasper,37.1527,-94.439,1,cluster_group_1
missouri,jefferson,38.28155,-90.4559,1,cluster_group_1
missouri,johnson,38.74665,-93.78845,1,cluster_group_1
missouri,knox,40.1488,-92.1737,3,cluster_group_3
missouri,laclede,37.5843,-92.6605,2,cluster_group_2
missouri,lafayette,39.0955,-93.7298,1,cluster_group_1
missouri,lawrence,37.0212,-93.8312,2,cluster_group_2
missouri,lewis,40.09505,-91.71825,3,cluster_group_3
missouri,lincoln,39.03115,-90.93795,1,cluster_group_1
missouri,linn,39.79365,-93.14375,2,cluster_group_2
missouri,livingston,39.7421,-93.6107,3,cluster_group_3
missouri,mcdonald,36.6168,-94.4464,2,cluster_group_2
missouri,macon,39.7508,-92.5031,2,cluster_group_2
missouri,madison,37.4721,-90.26095,2,cluster_group_2
missouri,maries,38.1872,-91.9453,2,cluster_group_2
missouri,marion,39.8392,-91.5447,2,cluster_group_2
missouri,mercer,40.4391,-93.5816,3,cluster_group_3
missouri,miller,38.1994,-92.47115,2,cluster_group_2
missouri,mississippi,36.8644,-89.3384,2,cluster_group_2
missouri,moniteau,38.6268,-92.5914,3,cluster_group_3
missouri,monroe,39.4917,-91.92135,3,cluster_group_3
missouri,montgomery,38.8956,-91.4491,2,cluster_group_2
missouri,morgan,38.3814,-92.8445,2,cluster_group_2
missouri,new madrid,36.59125,-89.6875,2,cluster_group_2
missouri,newton,36.8727,-94.2905,1,cluster_group_1
missouri,nodaway,40.3465,-94.8369,2,cluster_group_2
missouri,oregon,36.5693,-91.3976,2,cluster_group_2
missouri,osage,38.44935,-91.9422,3,cluster_group_3
missouri,ozark,36.6097,-92.4045,2,cluster_group_2
missouri,pemiscot,36.1777,-89.8295,2,cluster_group_2
missouri,perry,37.6677,-89.6904,3,cluster_group_3
missouri,pettis,38.6982,-93.2476,2,cluster_group_2
missouri,phelps,37.9233,-91.8672,2,cluster_group_2
missouri,pike,39.3283,-91.1744,2,cluster_group_2
missouri,platte,39.2634,-94.6835,1,cluster_group_1
missouri,polk,37.61725,-93.4839,2,cluster_group_2
missouri,pulaski,37.8373,-92.185,1,cluster_group_1
missouri,putnam,40.4802,-92.9754,3,cluster_group_3
missouri,ralls,39.55065,-91.46105,3,cluster_group_3
missouri,randolph,39.4175,-92.4309,2,cluster_group_2
missouri,ray,39.2826,-94.0295,1,cluster_group_1
missouri,reynolds,37.4231,-90.9725,2,cluster_group_2
missouri,ripley,36.60145,-90.7617,2,cluster_group_2
missouri,st. charles,38.7822,-90.7191,1,cluster_group_1
missouri,st. clair,38.039,-93.7156,2,cluster_group_2
missouri,ste. genevieve,37.931,-90.1389,3,cluster_group_3
missouri,st. francois,37.8406,-90.5138,2,cluster_group_2
missouri,st. louis,38.64615,-90.37405,1,cluster_group_1
missouri,saline,39.1038,-93.1899,2,cluster_group_2
missouri,schuyler,40.5201,-92.5645,3,cluster_group_3
missouri,scotland,40.46445,-92.00315,3,cluster_group_3
missouri,scott,37.0919,-89.5844,2,cluster_group_2
missouri,shannon,37.008,-91.4888,2,cluster_group_2
missouri,shelby,39.76835,-92.0354,3,cluster_group_3
missouri,stoddard,36.8298,-89.9332,2,cluster_group_2
missouri,stone,36.71385,-93.4697,2,cluster_group_2
missouri,sullivan,40.253,-93.10905,3,cluster_group_3
missouri,taney,36.6469,-93.11885,2,cluster_group_2
missouri,texas,37.33035,-91.9615,2,cluster_group_2
missouri,vernon,37.8345,-94.3553,2,cluster_group_2
missouri,warren,38.8063,-91.1269,1,cluster_group_1
missouri,washington,38.0125,-90.7315,2,cluster_group_2
missouri,wayne,37.15985,-90.4173,2,cluster_group_2
missouri,webster,37.1728,-92.9108,2,cluster_group_2
missouri,worth,40.4828,-94.3336,3,cluster_group_3
missouri,wright,37.1567,-92.506,2,cluster_group_2
missouri,st. louis city,38.6288,-90.2123,2,cluster_group_2
montana,beaverhead,45.3548,-112.9107,3,cluster_group_3
montana,big horn,45.45015,-107.54255,0,cluster_group_0
montana,blaine,48.5633,-108.7907,3,cluster_group_3
montana,broadwater,46.278,-111.5925,3,cluster_group_3
montana,carbon,45.34265,-109.03945,3,cluster_group_3
montana,carter,45.4327,-104.4386,3,cluster_group_3
montana,cascade,47.4946,-111.27975,1,cluster_group_1
montana,chouteau,47.8668,-110.5872,3,cluster_group_3
montana,custer,46.4114,-105.6196,3,cluster_group_3
montana,daniels,48.78775,-105.3027,3,cluster_group_3
montana,dawson,47.33785,-104.9859,3,cluster_group_3
montana,deer lodge,46.16195,-112.8962,3,cluster_group_3
montana,fallon,46.2996,-104.4959,3,cluster_group_3
montana,fergus,47.3223,-109.3804,3,cluster_group_3
montana,flathead,48.2976,-114.2183,1,cluster_group_1
montana,gallatin,45.6815,-111.1829,1,cluster_group_1
montana,garfield,47.0525,-107.0957,3,cluster_group_3
montana,glacier,48.69595,-113.3209,0,cluster_group_0
montana,golden valley,46.2575,-109.1149,3,cluster_group_3
montana,granite,46.5523,-113.2787,3,cluster_group_3
montana,hill,48.5553,-110.3029,3,cluster_group_3
montana,jefferson,46.23815,-112.0596,3,cluster_group_3
montana,judith basin,47.08835,-110.1545,3,cluster_group_3
montana,lake,47.5991,-114.1758,2,cluster_group_2
montana,lewis and clark,46.6078,-112.0402,1,cluster_group_1
montana,liberty,48.6763,-111.0324,3,cluster_group_3
montana,lincoln,48.7047,-115.0177,2,cluster_group_2
montana,mccone,47.429,-105.5931,3,cluster_group_3
montana,madison,45.4625,-111.9284,3,cluster_group_3
montana,meagher,46.5237,-110.8053,3,cluster_group_3
montana,mineral,47.3413,-115.2236,2,cluster_group_2
montana,missoula,46.8718,-114.00365,1,cluster_group_1
montana,musselshell,46.46775,-108.13785,3,cluster_group_3
montana,park,45.3552,-110.6027,3,cluster_group_3
montana,petroleum,47.0826,-108.42995,3,cluster_group_3
montana,phillips,48.4511,-107.95945,3,cluster_group_3
montana,pondera,48.1916,-112.2624,3,cluster_group_3
montana,powder river,45.5399,-105.627,3,cluster_group_3
montana,powell,46.5742,-112.7726,3,cluster_group_3
montana,prairie,46.7965,-105.1002,3,cluster_group_3
montana,ravalli,46.2469,-114.12265,2,cluster_group_2
montana,richland,47.7137,-104.2624,3,cluster_group_3
montana,roosevelt,48.14375,-104.69485,0,cluster_group_0
montana,rosebud,46.06135,-106.5084,3,cluster_group_3
montana,sanders,47.6325,-114.8456,2,cluster_group_2
montana,sheridan,48.7374,-104.55325,3,cluster_group_3
montana,silver bow,45.9868,-112.60775,2,cluster_group_2
montana,stillwater,45.6126,-109.4607,3,cluster_group_3
montana,sweet grass,45.7856,-109.85525,3,cluster_group_3
montana,teton,47.8374,-112.0881,3,cluster_group_3
montana,toole,48.69255,-111.7764,3,cluster_group_3
montana,treasure,46.2893,-107.1975,3,cluster_group_3
montana,valley,48.404,-106.3935,3,cluster_group_3
montana,wheatland,46.3466,-109.7843,3,cluster_group_3
montana,wibaux,46.9688,-104.1913,3,cluster_group_3
montana,yellowstone,45.78165,-108.4873,1,cluster_group_1
nebraska,adams,40.5861,-98.5123,1,cluster_group_1
nebraska,antelope,42.1469,-98.0887,3,cluster_group_3
nebraska,arthur,41.5726,-101.7005,3,cluster_group_3
nebraska,banner,41.5737,-103.6853,3,cluster_group_3
nebraska,blaine,41.9644,-100.103,3,cluster_group_3
nebraska,boone,41.6065,-98.07135,3,cluster_group_3
nebraska,box butte,42.2198,-102.9807,3,cluster_group_3
nebraska,boyd,42.8895,-98.6973,3,cluster_group_3
nebraska,brown,42.5635,-99.95555,3,cluster_group_3
nebraska,buffalo,40.753,-99.1023,1,cluster_group_1
nebraska,burt,41.8334,-96.3665,3,cluster_group_3
nebraska,butler,41.22615,-97.0746,3,cluster_group_3
nebraska,cass,40.9137,-96.1407,1,cluster_group_1
nebraska,cedar,42.5084,-97.2647,3,cluster_group_3
nebraska,chase,40.4927,-101.6533,3,cluster_group_3
nebraska,cherry,42.9235,-100.7907,3,cluster_group_3
nebraska,cheyenne,41.19295,-102.97455,3,cluster_group_3
nebraska,clay,40.5582,-98.07395,3,cluster_group_3
nebraska,colfax,41.6959,-97.0659,3,cluster_group_3
nebraska,cuming,41.9892,-96.7148,3,cluster_group_3
nebraska,custer,41.404,-99.4132,3,cluster_group_3
nebraska,dakota,42.3928,-96.53825,1,cluster_group_1
nebraska,dawes,42.7185,-103.28665,3,cluster_group_3
nebraska,dawson,40.87625,-99.8589,1,cluster_group_1
nebraska,deuel,41.1064,-102.2529,3,cluster_group_3
nebraska,dixon,42.44425,-96.9149,3,cluster_group_3
nebraska,dodge,41.6093,-96.5238,1,cluster_group_1
nebraska,douglas,41.2588,-96.0016,1,cluster_group_1
nebraska,dundy,40.09895,-101.64385,3,cluster_group_3
nebraska,fillmore,40.4956,-97.5849,3,cluster_group_3
nebraska,franklin,40.1052,-98.9527,3,cluster_group_3
nebraska,frontier,40.6636,-100.3975,3,cluster_group_3
nebraska,furnas,40.2688,-99.93705,3,cluster_group_3
nebraska,gage,40.252,-96.61725,1,cluster_group_1
nebraska,garden,41.4035,-102.3457,3,cluster_group_3
nebraska,garfield,41.8213,-99.1711,3,cluster_group_3
nebraska,gosper,40.59435,-99.78605,3,cluster_group_3
nebraska,grant,42.0292,-101.7408,3,cluster_group_3
nebraska,greeley,41.5088,-98.46125,3,cluster_group_3
nebraska,hall,40.9188,-98.3815,1,cluster_group_1
nebraska,hamilton,40.89795,-98.0079,3,cluster_group_3
nebraska,harlan,40.1114,-99.3618,3,cluster_group_3
nebraska,hayes,40.4322,-101.07255,3,cluster_group_3
nebraska,hitchcock,40.1743,-101.0213,3,cluster_group_3
nebraska,holt,42.4102,-98.7486,3,cluster_group_3
nebraska,hooker,42.0398,-101.0458,3,cluster_group_3
nebraska,howard,41.1669,-98.58125,3,cluster_group_3
nebraska,jefferson,40.12685,-97.05415,3,cluster_group_3
nebraska,johnson,40.41775,-96.1782,3,cluster_group_3
nebraska,kearney,40.49035,-99.034,3,cluster_group_3
nebraska,keith,41.1261,-101.7106,3,cluster_group_3
nebraska,keya paha,42.8251,-99.424,3,cluster_group_3
nebraska,kimball,41.2267,-103.6714,3,cluster_group_3
nebraska,knox,42.6063,-97.8894,3,cluster_group_3
nebraska,lancaster,40.8119,-96.6866,1,cluster_group_1
nebraska,lincoln,41.0747,-100.7751,1,cluster_group_1
nebraska,logan,41.4715,-100.5253,3,cluster_group_3
nebraska,loup,41.8799,-99.5178,3,cluster_group_3
nebraska,mcpherson,41.5722,-100.959,3,cluster_group_3
nebraska,madison,42.0221,-97.5987,1,cluster_group_1
nebraska,merrick,41.1936,-98.07065,3,cluster_group_3
nebraska,morrill,41.7155,-103.08455,3,cluster_group_3
nebraska,nance,41.3617,-97.9725,3,cluster_group_3
nebraska,nemaha,40.4089,-95.8452,3,cluster_group_3
nebraska,nuckolls,40.17155,-97.99105,3,cluster_group_3
nebraska,otoe,40.6614,-96.1493,3,cluster_group_3
nebraska,pawnee,40.1885,-96.1546,3,cluster_group_3
nebraska,perkins,40.8423,-101.5419,3,cluster_group_3
nebraska,phelps,40.4812,-99.4735,3,cluster_group_3
nebraska,pierce,42.3504,-97.5302,3,cluster_group_3
nebraska,platte,41.4898,-97.493,1,cluster_group_1
nebraska,polk,41.14965,-97.5723,3,cluster_group_3
nebraska,red willow,40.2086,-100.4073,3,cluster_group_3
nebraska,richardson,40.1358,-95.71875,3,cluster_group_3
nebraska,rock,42.54105,-99.6048,3,cluster_group_3
nebraska,saline,40.45095,-97.10065,3,cluster_group_3
nebraska,sarpy,41.1444,-96.0048,1,cluster_group_1
nebraska,saunders,41.22105,-96.62095,1,cluster_group_1
nebraska,scotts bluff,41.8559,-103.6645,1,cluster_group_1
nebraska,seward,40.86515,-97.15125,3,cluster_group_3
nebraska,sheridan,42.67685,-102.51285,3,cluster_group_3
nebraska,sherman,41.1581,-98.9627,3,cluster_group_3
nebraska,sioux,42.6358,-103.8334,3,cluster_group_3
nebraska,stanton,41.9729,-97.13655,3,cluster_group_3
nebraska,thayer,40.154,-97.56555,3,cluster_group_3
nebraska,thomas,41.9907,-100.5753,3,cluster_group_3
nebraska,thurston,42.1503,-96.488,0,cluster_group_0
nebraska,valley,41.6026,-98.9313,3,cluster_group_3
nebraska,washington,41.47615,-96.20755,1,cluster_group_1
nebraska,wayne,42.2009,-97.1845,3,cluster_group_3
nebraska,webster,40.1111,-98.5227,3,cluster_group_3
nebraska,wheeler,41.83425,-98.6769,3,cluster_group_3
nebraska,york,40.8989,-97.5897,3,cluster_group_3
nevada,churchill,39.4717,-118.7782,2,cluster_group_2
nevada,clark,36.14385,-115.1461,1,cluster_group_1
nevada,douglas,38.99105,-119.8137,1,cluster_group_1
nevada,elko,40.9771,-115.66645,1,cluster_group_1
nevada,esmeralda,37.7074,-117.8612,3,cluster_group_3
nevada,eureka,39.99335,-116.24055,3,cluster_group_3
nevada,humboldt,41.22655,-117.72365,3,cluster_group_3
nevada,lander,40.1725,-117.0083,3,cluster_group_3
nevada,lincoln,37.6261,-114.5123,3,cluster_group_3
nevada,lyon,39.2636,-119.3193,1,cluster_group_1
nevada,mineral,38.61775,-118.38645,2,cluster_group_2
nevada,nye,36.6603,-116.4851,2,cluster_group_2
nevada,pershing,40.41545,-118.22575,3,cluster_group_3
nevada,storey,39.4333,-119.5701,3,cluster_group_3
nevada,washoe,39.5288,-119.8123,1,cluster_group_1
nevada,white pine,39.2472,-114.8927,3,cluster_group_3
nevada,carson city,39.1646,-119.7648,1,cluster_group_1
new hampshire,belknap,43.5188,-71.4774,1,cluster_group_1
new hampshire,carroll,43.839,-71.1946,1,cluster_group_1
new hampshire,cheshire,42.9086,-72.2853,1,cluster_group_1
new hampshire,coos,44.4848,-71.4416,2,cluster_group_2
new hampshire,grafton,43.8917,-71.9133,1,cluster_group_1
new hampshire,hillsborough,42.8998,-71.5819,1,cluster_group_1
new hampshire,merrimack,43.30475,-71.71365,1,cluster_group_1
new hampshire,rockingham,42.97685,-71.08465,1,cluster_group_1
new hampshire,strafford,43.2708,-70.9741,1,cluster_group_1
new hampshire,sullivan,43.3773,-72.1843,1,cluster_group_1
new jersey,atlantic,39.44625,-74.59185,1,cluster_group_1
new jersey,bergen,40.9257,-74.0491,1,cluster_group_1
new jersey,burlington,40.0053,-74.7853,1,cluster_group_1
new jersey,camden,39.8679,-75.0507,1,cluster_group_1
new jersey,cape may,39.144,-74.8149,1,cluster_group_1
new jersey,cumberland,39.336,-75.052,1,cluster_group_1
new jersey,essex,40.7475,-74.2039,1,cluster_group_1
new jersey,gloucester,39.7669,-75.1601,1,cluster_group_1
new jersey,hudson,40.7466,-74.0541,1,cluster_group_1
new jersey,hunterdon,40.59345,-74.90925,1,cluster_group_1
new jersey,mercer,40.22,-74.7061,1,cluster_group_1
new jersey,middlesex,40.5141,-74.3963,1,cluster_group_1
new jersey,monmouth,40.2923,-74.0662,1,cluster_group_1
new jersey,morris,40.8612,-74.4855,1,cluster_group_1
new jersey,ocean,39.94525,-74.1828,1,cluster_group_1
new jersey,passaic,40.918,-74.17075,1,cluster_group_1
new jersey,salem,39.5762,-75.4165,1,cluster_group_1
new jersey,somerset,40.57325,-74.6184,1,cluster_group_1
new jersey,sussex,41.0883,-74.7039,1,cluster_group_1
new jersey,union,40.65615,-74.3134,1,cluster_group_1
new jersey,warren,40.84405,-74.9779,1,cluster_group_1
new mexico,bernalillo,35.0943,-106.6188,1,cluster_group_1
new mexico,catron,33.9463,-108.6808,3,cluster_group_3
new mexico,chaves,33.15265,-104.52455,0,cluster_group_0
new mexico,cibola,35.0825,-107.6078,0,cluster_group_0
new mexico,colfax,36.50555,-104.8394,0,cluster_group_0
new mexico,curry,34.4058,-103.3251,2,cluster_group_2
new mexico,de baca,34.3046,-104.2478,0,cluster_group_0
new mexico,doa ana,32.30395,-106.72985,0,cluster_group_0
new mexico,eddy,32.4227,-104.24,1,cluster_group_1
new mexico,grant,32.77785,-108.2746,0,cluster_group_0
new mexico,guadalupe,35.0718,-104.8793,0,cluster_group_0
new mexico,harding,35.85975,-104.12525,3,cluster_group_3
new mexico,hidalgo,32.18195,-108.787,0,cluster_group_0
new mexico,lea,32.7903,-103.2943,1,cluster_group_1
new mexico,lincoln,33.4326,-105.5895,2,cluster_group_2
new mexico,los alamos,35.8795,-106.2923,3,cluster_group_3
new mexico,luna,32.2361,-107.739,0,cluster_group_0
new mexico,mckinley,35.5127,-108.6312,0,cluster_group_0
new mexico,mora,36.0103,-105.2209,0,cluster_group_0
new mexico,otero,32.8991,-105.8387,0,cluster_group_0
new mexico,quay,35.1185,-103.4546,2,cluster_group_2
new mexico,rio arriba,36.18105,-106.17655,0,cluster_group_0
new mexico,roosevelt,33.8647,-103.33625,0,cluster_group_0
new mexico,sandoval,35.5842,-106.6555,1,cluster_group_1
new mexico,san juan,36.7482,-108.1891,1,cluster_group_1
new mexico,san miguel,35.47095,-105.3893,0,cluster_group_0
new mexico,santa fe,35.65375,-105.95625,1,cluster_group_1
new mexico,sierra,33.14125,-107.37425,2,cluster_group_2
new mexico,socorro,34.1876,-106.8657,0,cluster_group_0
new mexico,taos,36.5084,-105.6166,0,cluster_group_0
new mexico,torrance,34.7218,-106.0452,0,cluster_group_0
new mexico,union,36.50735,-103.6764,3,cluster_group_3
new mexico,valencia,34.7716,-106.72275,0,cluster_group_0
new york,albany,42.6522,-73.7718,1,cluster_group_1
new york,allegany,42.2559,-78.1167,2,cluster_group_2
new york,bronx,40.846,-73.8863,0,cluster_group_0
new york,broome,42.114,-75.9063,1,cluster_group_1
new york,cattaraugus,42.29025,-78.665,2,cluster_group_2
new york,cayuga,42.9296,-76.6118,1,cluster_group_1
new york,chautauqua,42.2159,-79.333,1,cluster_group_1
new york,chemung,42.1227,-76.80535,1,cluster_group_1
new york,chenango,42.57855,-75.5864,1,cluster_group_1
new york,clinton,44.72015,-73.65945,1,cluster_group_1
new york,columbia,42.3086,-73.6486,1,cluster_group_1
new york,cortland,42.5928,-76.102,1,cluster_group_1
new york,delaware,42.26715,-74.89875,1,cluster_group_1
new york,dutchess,41.7243,-73.8075,1,cluster_group_1
new york,erie,42.88525,-78.822,1,cluster_group_1
new york,essex,44.11435,-73.6884,1,cluster_group_1
new york,franklin,44.8169,-74.2759,1,cluster_group_1
new york,fulton,43.1295,-74.3405,1,cluster_group_1
new york,genesee,42.99685,-78.1722,1,cluster_group_1
new york,greene,42.2911,-74.0949,1,cluster_group_1
new york,hamilton,43.7309,-74.4743,3,cluster_group_3
new york,herkimer,43.08305,-74.93915,1,cluster_group_1
new york,jefferson,44.0338,-75.9587,1,cluster_group_1
new york,kings,40.6678,-73.9634,1,cluster_group_1
new york,lewis,43.7391,-75.4294,3,cluster_group_3
new york,livingston,42.7974,-77.785,1,cluster_group_1
new york,madison,42.895,-75.6678,1,cluster_group_1
new york,monroe,43.1542,-77.6164,1,cluster_group_1
new york,montgomery,42.938,-74.3646,1,cluster_group_1
new york,nassau,40.73645,-73.6388,1,cluster_group_1
new york,new york,40.7529,-73.9838,1,cluster_group_1
new york,niagara,43.1789,-78.8829,1,cluster_group_1
new york,oneida,43.1498,-75.35055,1,cluster_group_1
new york,onondaga,43.05,-76.1465,1,cluster_group_1
new york,ontario,42.90235,-77.26445,1,cluster_group_1
new york,orange,41.3944,-74.2429,1,cluster_group_1
new york,orleans,43.2445,-78.1373,1,cluster_group_1
new york,oswego,43.414,-76.1308,1,cluster_group_1
new york,otsego,42.6093,-75.0288,1,cluster_group_1
new york,putnam,41.3744,-73.7615,1,cluster_group_1
new york,queens,40.7223,-73.8187,1,cluster_group_1
new york,rensselaer,42.68975,-73.5309,1,cluster_group_1
new york,richmond,40.60625,-74.14115,1,cluster_group_1
new york,rockland,41.1218,-73.9946,1,cluster_group_1
